[{"name": "pop", "preview_url": "https://p.scdn.co/mp3-preview/17fa164b977074dd1b1869bfb10b08cfd513e53b", "color": "#A3E89E", "coordinates": [0.8290151357650757, -0.5260379910469055, 0.4163372218608856], "weight": 571}, {"name": "rap", "preview_url": "https://p.scdn.co/mp3-preview/6a8b8a604866070283a65bc021cb51330555e9c7", "color": "#818CE9", "coordinates": [-0.9091522693634033, -0.1502179503440857, 0.07743264734745026], "weight": 314}, {"name": "rock", "preview_url": "https://p.scdn.co/mp3-preview/c5efbed38649f0676181dc6bb6e3c8644925726e", "color": "#A8B69D", "coordinates": [-0.41541925072669983, -0.2737816274166107, -0.7909194231033325], "weight": 411}, {"name": "hip hop", "preview_url": "https://p.scdn.co/mp3-preview/f27225424bca80900ee9a32f4a494c900a012200", "color": "#A8A5E8", "coordinates": [0.6602661609649658, 0.6417726278305054, -0.35472315549850464], "weight": 229}, {"name": "trap latino", "preview_url": "https://p.scdn.co/mp3-preview/51d496e8d53059179863411b06ed2431ca2be92a", "color": "#BAFDFE", "coordinates": [-0.6772440075874329, -0.10417117923498154, 0.05509820580482483], "weight": 0}, {"name": "reggaeton", "preview_url": "https://p.scdn.co/mp3-preview/3c1278cf0eb6aba0f72552a3aa469dfed37d8e75", "color": "#88AEFD", "coordinates": [0.7247928380966187, 0.43509572744369507, -0.3225519359111786], "weight": 6}, {"name": "dance pop", "preview_url": "https://p.scdn.co/mp3-preview/6de2791f84c1d637a0e24734b6df3997cc742da4", "color": "#BA80F4", "coordinates": [0.6841569542884827, -0.44568026065826416, 0.3483978807926178], "weight": 4}, {"name": "pop rap", "preview_url": "https://p.scdn.co/mp3-preview/d34545f442d5a3861c61afd164d7927b00c06531", "color": "#D6E9D2", "coordinates": [-0.04055630788207054, -0.33738401532173157, 0.2463391274213791], "weight": 6}, {"name": "modern rock", "preview_url": "https://p.scdn.co/mp3-preview/a7a72315d777f4ed078d955238f9db158c915fc1", "color": "#96DAB7", "coordinates": [-0.34316569566726685, -0.2169826328754425, -0.6431176662445068], "weight": 1}, {"name": "latin pop", "preview_url": "https://p.scdn.co/mp3-preview/3829c17a7890155b43266bc3097cdddd8099a511", "color": "#C2EBC2", "coordinates": [0.7045159339904785, -0.45182672142982483, 0.35762307047843933], "weight": 0}, {"name": "classic rock", "preview_url": "https://p.scdn.co/mp3-preview/6c1f5377ae30c65577835dce021c23bcf198591f", "color": "#E8EEBD", "coordinates": [-0.2926238775253296, -0.19405929744243622, -0.5541571974754333], "weight": 1}, {"name": "permanent wave", "preview_url": "https://p.scdn.co/mp3-preview/03da0b85c9fa2fb5e621e97d4fb145a17aaf7ef1", "color": "#D7AEFB", "coordinates": [-0.3235211670398712, 0.21385598182678223, 0.5968334674835205], "weight": 0}, {"name": "trap", "preview_url": "https://p.scdn.co/mp3-preview/1e15f2d4ac12c4f851604da51d13eccc5db47cef", "color": "#D08BFB", "coordinates": [-0.7796140313148499, -0.12173619866371155, 0.06300236284732819], "weight": 84}, {"name": "alternative metal", "preview_url": "https://p.scdn.co/mp3-preview/5efe16cd96fbb2c320332c1ba8f120909db22d21", "color": "#E1E9A4", "coordinates": [-0.48159971833229065, 0.49874812364578247, 0.05043945834040642], "weight": 1}, {"name": "k-pop", "preview_url": "https://p.scdn.co/mp3-preview/33e5ec94a2f425d6b83a045a760be6bc90bba335", "color": "#BA83DC", "coordinates": [0.7127946019172668, -0.46086224913597107, 0.35886406898498535], "weight": 7}, {"name": "r&b", "preview_url": "https://p.scdn.co/mp3-preview/6527596393b3ea9d71d6e58b9f08c67fe69eac9e", "color": "#AEF2D0", "coordinates": [-0.19958564639091492, -0.6619209051132202, 0.7668808102607727], "weight": 32}, {"name": "corrido", "preview_url": "https://p.scdn.co/mp3-preview/cdb979187e3efd6a89c8cd8d3688f5818d8adb48", "color": "#C995EE", "coordinates": [0.31911835074424744, 0.5792930126190186, 0.5540599226951599], "weight": 6}, {"name": "canadian pop", "preview_url": "https://p.scdn.co/mp3-preview/be044054206fc8cfabbcf3689f5cbbba32aabf76", "color": "#DED6C2", "coordinates": [0.6936801075935364, -0.45126038789749146, 0.3530978858470917], "weight": 1}, {"name": "norteno", "preview_url": "https://p.scdn.co/mp3-preview/5de4dbcb2385cecb5cb6f73d8f85438f956ff897", "color": "#DFEA80", "coordinates": [-0.4081264138221741, -0.3917600214481354, 0.824171781539917], "weight": 3}, {"name": "sierreno", "preview_url": "https://p.scdn.co/mp3-preview/3c714f7761f69f05e01a9ef084e6f31d2f4a643d", "color": "#DCCE83", "coordinates": [0.7741910815238953, 0.5547422766685486, 0.4902963936328888], "weight": 2}, {"name": "album rock", "preview_url": "https://p.scdn.co/mp3-preview/4e8704349932ecb754e3c03cdf3b1563309627a0", "color": "#A68AAC", "coordinates": [-0.39686235785484314, -0.2551327645778656, -0.755388081073761], "weight": 0}, {"name": "soft rock", "preview_url": "https://p.scdn.co/mp3-preview/0408c4e5f1d51b6b605429205342fde6930d96ea", "color": "#8CCF86", "coordinates": [-0.3548753559589386, -0.22480691969394684, -0.6652798056602478], "weight": 1}, {"name": "pop dance", "preview_url": "https://p.scdn.co/mp3-preview/1164c378d1a70ec8cfa42a28dc108503e8f62768", "color": "#899AAC", "coordinates": [0.7544732093811035, -0.4838481843471527, 0.3816220164299011], "weight": 1}, {"name": "sad sierreno", "preview_url": "https://p.scdn.co/mp3-preview/6b696210aaae9dd245c0a6c0adc6e9dd8afee523", "color": "#ECB9C1", "coordinates": [0.5596314668655396, 0.3868088722229004, 0.35100096464157104], "weight": 0}, {"name": "edm", "preview_url": "https://p.scdn.co/mp3-preview/89dff34e3b51bd0aaa6c3910debda6476fe66e4a", "color": "#DD88A2", "coordinates": [0.21794484555721283, 0.13836415112018585, -0.8806198239326477], "weight": 24}, {"name": "hard rock", "preview_url": "https://p.scdn.co/mp3-preview/ad97ce828e504498e211b6525c5ccee86642786b", "color": "#F885BB", "coordinates": [-0.30515623092651367, -0.19706180691719055, -0.5756077170372009], "weight": 9}, {"name": "contemporary country", "preview_url": "https://p.scdn.co/mp3-preview/3587df4ee9fd89943486a6b3ee7d0bb7c19bfb35", "color": "#C3EB8C", "coordinates": [-0.4055449366569519, 0.3039560914039612, -0.3711394667625427], "weight": 2}, {"name": "uk pop", "preview_url": "https://p.scdn.co/mp3-preview/28f56f19466d4fd09f4e791e0f40bd694c5c6cf9", "color": "#F588DA", "coordinates": [0.7390633821487427, -0.4734443426132202, 0.37520352005958557], "weight": 2}, {"name": "melodic rap", "preview_url": "https://p.scdn.co/mp3-preview/5375749526c97f47a4dd645ca575a107c3423c13", "color": "#E6EDAB", "coordinates": [-0.8281026482582092, -0.13178442418575287, 0.07058951258659363], "weight": 4}, {"name": "alternative rock", "preview_url": "https://p.scdn.co/mp3-preview/eca519f0a85862d9510d57d59df557081d375e3a", "color": "#F4D7D1", "coordinates": [-0.3838622570037842, 0.1387835443019867, -0.6511055827140808], "weight": 21}, {"name": "banda", "preview_url": "https://p.scdn.co/mp3-preview/a9da152ba095773913e1826bfd19c78609b43496", "color": "#A0FDAD", "coordinates": [-0.17114965617656708, 0.33530789613723755, 0.8765340447425842], "weight": 9}, {"name": "post-grunge", "preview_url": "https://p.scdn.co/mp3-preview/6056f92c7dcd49c7abfa4fd5454772861b2e17ba", "color": "#AA98EB", "coordinates": [-0.45615261793136597, -0.1538117229938507, 0.5360959768295288], "weight": 0}, {"name": "corridos tumbados", "preview_url": "https://p.scdn.co/mp3-preview/737e02df2101ae364cdc908c68f50bc56ebdd633", "color": "#9A8CB4", "coordinates": [0.2504737973213196, 0.45783430337905884, 0.4196057617664337], "weight": 0}, {"name": "sertanejo universitario", "preview_url": "https://p.scdn.co/mp3-preview/f9a68036db8f21cf87fe8f129c4cc1d53ca91eb5", "color": "#92C999", "coordinates": [-0.37530308961868286, -0.20413683354854584, 0.024889113381505013], "weight": 0}, {"name": "nu metal", "preview_url": "https://p.scdn.co/mp3-preview/902dacc92715211e588270b1f4e62fd3681e218e", "color": "#DAEAEF", "coordinates": [-0.44136127829551697, 0.34272387623786926, 0.549592912197113], "weight": 1}, {"name": "country", "preview_url": "https://p.scdn.co/mp3-preview/327c020067dc3208aed124191674a27741179c52", "color": "#AD86BA", "coordinates": [-0.6122419834136963, 0.472340852022171, -0.578493595123291], "weight": 44}, {"name": "art pop", "preview_url": "https://p.scdn.co/mp3-preview/559376c76e6833bf834b2cd49190be0c1531a456", "color": "#8CD1A4", "coordinates": [0.7930221557617188, -0.5080881118774414, 0.398566871881485], "weight": 0}, {"name": "atl hip hop", "preview_url": "https://p.scdn.co/mp3-preview/be360a507094a10639c1da4d1e8da31514d744dc", "color": "#BFE6E3", "coordinates": [0.5854142904281616, 0.5654482245445251, -0.31596437096595764], "weight": 0}, {"name": "sertanejo", "preview_url": "https://p.scdn.co/mp3-preview/d7a71a211a5adbb009cb3d11c22c26d7b35e692c", "color": "#BF9A84", "coordinates": [0.09541651606559753, -0.8255693912506104, 0.640579879283905], "weight": 4}, {"name": "southern hip hop", "preview_url": "https://p.scdn.co/mp3-preview/2eb13d7dbfa77401e19d5950eac8cd3c02b76ffe", "color": "#949AE5", "coordinates": [0.5254656076431274, 0.49961206316947937, -0.2802857756614685], "weight": 0}, {"name": "singer-songwriter", "preview_url": "https://p.scdn.co/mp3-preview/6a17ed2e1ee8d45a933c4a86dd268ba8f12299a4", "color": "#8490E3", "coordinates": [0.30447328090667725, 0.7165740132331848, 0.43446779251098633], "weight": 33}, {"name": "reggaeton colombiano", "preview_url": "https://p.scdn.co/mp3-preview/c68c8081615f6d3ddca71be0871ae32c29cb074b", "color": "#E5ADEC", "coordinates": [0.6411835551261902, 0.38277554512023926, -0.2839583456516266], "weight": 0}, {"name": "arrocha", "preview_url": "https://p.scdn.co/mp3-preview/125d70024c88bb1bf45666f6396dc21a181c416e", "color": "#95D2EA", "coordinates": [0.040386684238910675, 0.6242304444313049, -0.7351033687591553], "weight": 1}, {"name": "french hip hop", "preview_url": "https://p.scdn.co/mp3-preview/58d86b35819bf30c3cd3779b590511b3f672edd2", "color": "#B3ACC7", "coordinates": [0.48364967107772827, 0.4570634067058563, -0.2585185170173645], "weight": 0}, {"name": "colombian pop", "preview_url": "https://p.scdn.co/mp3-preview/421b190bc8aceef3ab60ae23839d3fb0d3d58366", "color": "#8083AE", "coordinates": [0.7878164649009705, -0.5035416483879089, 0.3980284035205841], "weight": 1}, {"name": "country road", "preview_url": "https://p.scdn.co/mp3-preview/63867b119633ebf0164c0790a426c8bb3a6a006d", "color": "#F7C1C0", "coordinates": [-0.47847720980644226, 0.36701932549476624, -0.4502183198928833], "weight": 0}, {"name": "mexican pop", "preview_url": "https://p.scdn.co/mp3-preview/414dd8f21e6f6d66345182fadc84ecb2f75d63db", "color": "#AFA8CF", "coordinates": [0.6482650637626648, -0.41670462489128113, 0.3335490822792053], "weight": 1}, {"name": "canadian hip hop", "preview_url": "https://p.scdn.co/mp3-preview/cbf610556381f840a007e22c3464c49101f0e41c", "color": "#B8B0FC", "coordinates": [0.5813292264938354, 0.5633164644241333, -0.3157828450202942], "weight": 0}, {"name": "j-pop", "preview_url": "https://p.scdn.co/mp3-preview/32272361f0a4765efd6f50ee68873065bd447998", "color": "#FDFAD2", "coordinates": [0.5621131062507629, -0.3610692024230957, 0.29121315479278564], "weight": 4}, {"name": "indonesian pop", "preview_url": "https://p.scdn.co/mp3-preview/1ea7ef6bda7fc8f4510440e442102bb912695aad", "color": "#EDE099", "coordinates": [0.7049036622047424, -0.45464301109313965, 0.3540177643299103], "weight": 2}, {"name": "singer-songwriter pop", "preview_url": "https://p.scdn.co/mp3-preview/c36c954550003bcc96a355cbd2edfdd3069ad08f", "color": "#CD9BC1", "coordinates": [0.5653982758522034, 0.09468194097280502, 0.4243216812610626], "weight": 0}, {"name": "ranchera", "preview_url": "https://p.scdn.co/mp3-preview/c854bfb4703a1edc834234811c4d89119b6ae116", "color": "#9EA7F3", "coordinates": [-0.42662864923477173, 0.07244918495416641, -0.8572145700454712], "weight": 1}, {"name": "new wave pop", "preview_url": "https://p.scdn.co/mp3-preview/14bab659cdd73644ed4dbe48409c370fd1b587a9", "color": "#DFF9BD", "coordinates": [0.14085076749324799, -0.09019176661968231, 0.5626243948936462], "weight": 0}, {"name": "indietronica", "preview_url": "https://p.scdn.co/mp3-preview/5f13f4fe96ec9766dfcf0ea5b977190245502a4b", "color": "#B19AB7", "coordinates": [-0.3499607443809509, -0.05243785306811333, 0.8740568161010742], "weight": 1}, {"name": "german hip hop", "preview_url": "https://p.scdn.co/mp3-preview/fde79b7f740702c6e292119e6ece55764b247d5d", "color": "#80C8DA", "coordinates": [0.5582955479621887, 0.5403317213058472, -0.30261167883872986], "weight": 1}, {"name": "pop urbaine", "preview_url": "https://p.scdn.co/mp3-preview/d1f8288c1c6a5b26d3cbcb31c1718837757d88e1", "color": "#9D83FB", "coordinates": [0.1326078623533249, 0.09459026157855988, 0.02664666250348091], "weight": 0}, {"name": "rock en espanol", "preview_url": "https://p.scdn.co/mp3-preview/1687c34f87c13a2c8f76e7608e065218527fa295", "color": "#C3C8DF", "coordinates": [-0.523510217666626, -0.1905619502067566, -0.1691773682832718], "weight": 0}, {"name": "latin alternative", "preview_url": "https://p.scdn.co/mp3-preview/0c11ad00229b2e9a03c0c9b1bfbdbfd34ac4f0c4", "color": "#C1A6A5", "coordinates": [-0.3494912385940552, 0.4824696183204651, -0.5108529329299927], "weight": 1}, {"name": "gangster rap", "preview_url": "https://p.scdn.co/mp3-preview/b97f4269cab242c0dd5721c5ba1a515f538fcb59", "color": "#A6AE9C", "coordinates": [-0.7284836173057556, -0.1137407124042511, 0.05919572710990906], "weight": 1}, {"name": "soul", "preview_url": "https://p.scdn.co/mp3-preview/b7d1edc8d69475f33a6025d4746bb02b04df4adc", "color": "#B4AF9B", "coordinates": [0.639396071434021, 0.49440568685531616, 0.6387138366699219], "weight": 38}, {"name": "k-pop boy group", "preview_url": "https://p.scdn.co/mp3-preview/8142182f260301c7bd47fd24003558307e114e80", "color": "#A6DEFE", "coordinates": [0.7098488807678223, -0.45837873220443726, 0.35688284039497375], "weight": 0}, {"name": "latin arena pop", "preview_url": "https://p.scdn.co/mp3-preview/ea659448ef6ed8bccfcb444246e1057ddfc41a9c", "color": "#B2A8DC", "coordinates": [0.5583157539367676, -0.37529027462005615, 0.2772236168384552], "weight": 0}, {"name": "chicago rap", "preview_url": "https://p.scdn.co/mp3-preview/5e37e03c759ee2aecb93090018eb90aa9e2efb3d", "color": "#BA96E8", "coordinates": [-0.7979766726493835, -0.12830689549446106, 0.06703212112188339], "weight": 0}, {"name": "italian pop", "preview_url": "https://p.scdn.co/mp3-preview/28765fd9281f1c6ae3b1163a53f8c4564eb8fff2", "color": "#FA9FCA", "coordinates": [0.6706169247627258, -0.4373319745063782, 0.34459641575813293], "weight": 4}, {"name": "heartland rock", "preview_url": "https://p.scdn.co/mp3-preview/b03b592db51b8b06e0b04b538630912849195a14", "color": "#99C5D9", "coordinates": [-0.35362836718559265, -0.2275875210762024, -0.6703991293907166], "weight": 0}, {"name": "k-pop girl group", "preview_url": "https://p.scdn.co/mp3-preview/f31c5d3f900f3ce6a17768be01511f3bb6f88ce4", "color": "#ABE1C6", "coordinates": [0.1177166998386383, -0.41071927547454834, 0.34613877534866333], "weight": 0}, {"name": "modern country pop", "preview_url": "https://p.scdn.co/mp3-preview/edec90019e2f14e4d9725ca680c572780061c930", "color": "#95B9C2", "coordinates": [0.10872695595026016, -0.027283605188131332, -0.08045050501823425], "weight": 0}, {"name": "electro house", "preview_url": "https://p.scdn.co/mp3-preview/105556269db8065f39f5d17b348475f8bb19051b", "color": "#958A9A", "coordinates": [-0.48088976740837097, 0.47159209847450256, -0.0468737967312336], "weight": 1}, {"name": "latin hip hop", "preview_url": "https://p.scdn.co/mp3-preview/da63a8ebe906550c058431a03e5cb0f31b3b839a", "color": "#E4C9CB", "coordinates": [0.5097798705101013, 0.4835880994796753, -0.2749887704849243], "weight": 0}, {"name": "canadian contemporary r&b", "preview_url": "https://p.scdn.co/mp3-preview/0c441d7b02032c2ef15cd36d5ee1ce4ad1139e5d", "color": "#C4BCD1", "coordinates": [-0.13445821404457092, -0.48938360810279846, 0.5548531413078308], "weight": 0}, {"name": "pop punk", "preview_url": "https://p.scdn.co/mp3-preview/36b8ec978ad11bb619615356c1c3b11dfeb12dd8", "color": "#B2AD95", "coordinates": [0.6972755193710327, -0.5826433897018433, -0.05810607224702835], "weight": 17}, {"name": "pop rock", "preview_url": "https://p.scdn.co/mp3-preview/30e2a899a94a089d5c341b782b00aa802fd87610", "color": "#9E84FC", "coordinates": [0.20600058138370514, -0.39903154969215393, -0.18720051646232605], "weight": 9}, {"name": "latin rock", "preview_url": "https://p.scdn.co/mp3-preview/a5c1c6d54c02805228618fb5cf7496b6475086c9", "color": "#D298D7", "coordinates": [-0.38058656454086304, -0.2439681887626648, -0.7194833755493164], "weight": 0}, {"name": "punjabi pop", "preview_url": "https://p.scdn.co/mp3-preview/93cc3918af0eb3406033007cb17425c11c232df7", "color": "#9FC0F0", "coordinates": [0.5845866203308105, -0.39294886589050293, 0.2930740714073181], "weight": 1}, {"name": "rap metal", "preview_url": "https://p.scdn.co/mp3-preview/63ad5c729897a9e7c044d1868f569d49e9be05c0", "color": "#F4F8A6", "coordinates": [-0.5790340304374695, 0.12073999643325806, 0.3108285367488861], "weight": 5}, {"name": "trap argentino", "preview_url": "https://p.scdn.co/mp3-preview/f2c1a85ee07437b3f29905e5975608608de617c6", "color": "#F2F4C7", "coordinates": [-0.6895543336868286, -0.10448622703552246, 0.054987020790576935], "weight": 0}, {"name": "new wave", "preview_url": "https://p.scdn.co/mp3-preview/37e6049e5c604a5a0b0c0c5ef68208f72e0fed38", "color": "#AFC896", "coordinates": [-0.33081966638565063, 0.21575196087360382, 0.6175427436828613], "weight": 13}, {"name": "uk dance", "preview_url": "https://p.scdn.co/mp3-preview/d156060faa3d61d5fa3ea817f7ebc4008a954549", "color": "#C8E0D3", "coordinates": [-0.4308083653450012, -0.8566737771034241, 0.09948834031820297], "weight": 1}, {"name": "slap house", "preview_url": "https://p.scdn.co/mp3-preview/2c4b983548830cd246d4a10a451a1c1f2fb25efa", "color": "#8ACCAA", "coordinates": [-0.2961786687374115, 0.5887044668197632, 0.36814746260643005], "weight": 0}, {"name": "modern alternative rock", "preview_url": "https://p.scdn.co/mp3-preview/19089162cd7d61e5cc80fbc1623332df0c59baa3", "color": "#A0FC87", "coordinates": [-0.3519677221775055, 0.12484080344438553, -0.590194046497345], "weight": 0}, {"name": "indie pop", "preview_url": "https://p.scdn.co/mp3-preview/24014ce72466a645baf03cee71fb065bfffef740", "color": "#E7D2D3", "coordinates": [0.6149431467056274, -0.40800005197525024, 0.316097617149353], "weight": 16}, {"name": "indie rock", "preview_url": "https://p.scdn.co/mp3-preview/85280509156c3f6ba4f72d9c25f455f72e9f8240", "color": "#86A8A7", "coordinates": [-0.367141455411911, -0.23316755890846252, -0.6878319978713989], "weight": 31}, {"name": "house", "preview_url": "https://p.scdn.co/mp3-preview/81e1063337ea616b86a2b74f559af056f0c36fd5", "color": "#B6FDFE", "coordinates": [-0.31118935346603394, 0.6491596698760986, 0.4100421071052551], "weight": 97}, {"name": "conscious hip hop", "preview_url": "https://p.scdn.co/mp3-preview/74e3a56842f5000be3a9f26a27e37ac90dcf7363", "color": "#D18694", "coordinates": [0.5540504455566406, 0.5328512787818909, -0.2992155849933624], "weight": 0}, {"name": "modern country rock", "preview_url": "https://p.scdn.co/mp3-preview/ff703a1976b763fb8a31305765a650e299c6c603", "color": "#94B799", "coordinates": [-0.43777406215667725, 0.0881277546286583, -0.5786429047584534], "weight": 0}, {"name": "east coast hip hop", "preview_url": "https://p.scdn.co/mp3-preview/cea4658190b7d2e1ea6d960db419f18e65e9a2e7", "color": "#9E8C91", "coordinates": [0.5130578875541687, 0.489383339881897, -0.2820740342140198], "weight": 1}, {"name": "folk rock", "preview_url": "https://p.scdn.co/mp3-preview/53ab746c37c717c20f793598064b7f720877b646", "color": "#C296D3", "coordinates": [-0.1825234442949295, 0.3118276000022888, -0.33954426646232605], "weight": 9}, {"name": "metal", "preview_url": "https://p.scdn.co/mp3-preview/2121bedf135b44a9f49cce6f4c8b003959c16826", "color": "#80B3C3", "coordinates": [-0.5691200494766235, 0.4285356402397156, 0.6996461153030396], "weight": 391}, {"name": "turkish pop", "preview_url": "https://p.scdn.co/mp3-preview/0402af5596e6ca5b7a9dbedc81b0621e2fbd13d4", "color": "#F6A68C", "coordinates": [0.6942607164382935, -0.4492303133010864, 0.34949591755867004], "weight": 2}, {"name": "bedroom pop", "preview_url": "https://p.scdn.co/mp3-preview/8b7ebeab31351c105a4136630edc77238cfb2959", "color": "#CE98F8", "coordinates": [0.7995171546936035, -0.5079993605613708, 0.4029266834259033], "weight": 1}, {"name": "desi pop", "preview_url": "https://p.scdn.co/mp3-preview/adc1a73cffab5e6edea79f5a481257068f929f46", "color": "#C597A5", "coordinates": [0.5598158836364746, -0.37480342388153076, 0.2743561863899231], "weight": 0}, {"name": "italian hip hop", "preview_url": "https://p.scdn.co/mp3-preview/de40bf03511289536ab80dcf98587bad99079a28", "color": "#9ED3B4", "coordinates": [0.4612487554550171, 0.4404052495956421, -0.25582313537597656], "weight": 0}, {"name": "hoerspiel", "preview_url": "https://p.scdn.co/mp3-preview/bf6f16f3fd476f2bdc730f533a2ccb98f5c69a5a", "color": "#ADEA9E", "coordinates": [0.7761828899383545, 0.2733716070652008, -0.3492051362991333], "weight": 1}, {"name": "afrobeats", "preview_url": "https://p.scdn.co/mp3-preview/d9b97825d2fd155ef58cc5d3693b6e3b09ca8b42", "color": "#9EA9DA", "coordinates": [0.6331775784492493, -0.07972704619169235, -0.004023823421448469], "weight": 0}, {"name": "adult standards", "preview_url": "https://p.scdn.co/mp3-preview/5d608551226ae776c0f90d719b0efc6486368b7b", "color": "#84CDCC", "coordinates": [-0.4674268960952759, 0.27558809518814087, 0.776071310043335], "weight": 1}, {"name": "post-teen pop", "preview_url": "https://p.scdn.co/mp3-preview/5c12459078663a786a28fc43ad3dd306f6bf6bc5", "color": "#EDCEAE", "coordinates": [0.6025701761245728, -0.39257529377937317, 0.2960445284843445], "weight": 0}, {"name": "neo soul", "preview_url": "https://p.scdn.co/mp3-preview/426cd317745626f2b0f3acd09f32bc986363084e", "color": "#9084F8", "coordinates": [0.6346340775489807, 0.4907670319080353, 0.6334500908851624], "weight": 1}, {"name": "cloud rap", "preview_url": "https://p.scdn.co/mp3-preview/a0e1301cc3d01afc3d523742ce76fe53cc82a5bf", "color": "#C2ABF4", "coordinates": [-0.02411618083715439, -0.13706843554973602, -0.2313038855791092], "weight": 2}, {"name": "viral pop", "preview_url": "https://p.scdn.co/mp3-preview/514581d4aa2483fc1ad89a46417418893aa387f1", "color": "#D1828A", "coordinates": [0.5701314806938171, -0.38316893577575684, 0.2917521297931671], "weight": 11}, {"name": "talent show", "preview_url": "https://p.scdn.co/mp3-preview/9569ed39233720069f71c9e0503af9b2862c33d6", "color": "#FA82F4", "coordinates": [0.6750261783599854, -0.8160940408706665, 0.24460187554359436], "weight": 5}, {"name": "spanish pop", "preview_url": "https://p.scdn.co/mp3-preview/73b5ecb7b405bb04a7add957841a43022d4bf9aa", "color": "#9895F5", "coordinates": [0.09784844517707825, -0.3166836202144623, 0.43358296155929565], "weight": 2}, {"name": "punk", "preview_url": "https://p.scdn.co/mp3-preview/fca55654c7bbd62eaa1455a33b0dfaf8c9503d1c", "color": "#E1C7C3", "coordinates": [0.6353946924209595, -0.6932426691055298, -0.5399044752120972], "weight": 182}, {"name": "alternative r&b", "preview_url": "https://p.scdn.co/mp3-preview/46d659581011d901f8cd9a0870c6e3d46a39e603", "color": "#C8CBFB", "coordinates": [-0.29719260334968567, -0.04498101770877838, 0.08322164416313171], "weight": 0}, {"name": "grupera", "preview_url": "https://p.scdn.co/mp3-preview/716615ade6dbed7c583bcf3df77ea7dc05aec60a", "color": "#D78886", "coordinates": [0.9237050414085388, -0.3721977174282074, -0.17377795279026031], "weight": 1}, {"name": "west coast rap", "preview_url": "https://p.scdn.co/mp3-preview/36d6ea8f93e43ba531103e228d23fcc4db2851f0", "color": "#F0A4A3", "coordinates": [-0.6868816614151001, -0.1125398799777031, 0.05688689649105072], "weight": 0}, {"name": "opm", "preview_url": "https://p.scdn.co/mp3-preview/c41f36887dbab20b60ca7da3ab210abe6ad9db73", "color": "#AF8AA0", "coordinates": [0.020320946350693703, 0.7910668253898621, -0.5519343614578247], "weight": 2}, {"name": "psychedelic rock", "preview_url": "https://p.scdn.co/mp3-preview/f39a05b57be781d6f8fe5aaf2c1fa5de56ce45e6", "color": "#9785F2", "coordinates": [-0.37910690903663635, -0.24342773854732513, -0.7175418138504028], "weight": 8}, {"name": "glam metal", "preview_url": "https://p.scdn.co/mp3-preview/f807207569139ef31109694ef0d008e3ff7936e4", "color": "#9CA3C5", "coordinates": [-0.4279578924179077, 0.3332599103450775, 0.5239095687866211], "weight": 1}, {"name": "desi hip hop", "preview_url": "https://p.scdn.co/mp3-preview/b9c94b4e10a8e42716652ef0270e25b07a2e95d8", "color": "#FDDE93", "coordinates": [0.5236777067184448, 0.5015430450439453, -0.28338611125946045], "weight": 0}, {"name": "ccm", "preview_url": "https://p.scdn.co/mp3-preview/54802293b470f01b099abe7dbd42284da5d3fc23", "color": "#A895D4", "coordinates": [0.4438457190990448, -0.6053573489189148, 0.7082507610321045], "weight": 7}, {"name": "rage rap", "preview_url": "https://p.scdn.co/mp3-preview/ad25333f0d85daff4e0a452a6158e5c37949f06f", "color": "#82EFD7", "coordinates": [-0.631058931350708, -0.09915349632501602, 0.050073396414518356], "weight": 0}, {"name": "hip pop", "preview_url": "https://p.scdn.co/mp3-preview/53db459e35419d85ead0512b5144df7e1e176f6b", "color": "#A9A698", "coordinates": [0.6617062091827393, -0.42507606744766235, 0.33318567276000977], "weight": 0}, {"name": "puerto rican pop", "preview_url": "https://p.scdn.co/mp3-preview/523bf7dfbddbb52e0d03b60003a397efc61114c5", "color": "#FFCCC9", "coordinates": [0.559227705001831, -0.3741013705730438, 0.28547829389572144], "weight": 0}, {"name": "german pop", "preview_url": "https://p.scdn.co/mp3-preview/6b4c397203176cc18b0b8939996c37bfc55c75a1", "color": "#8D97F8", "coordinates": [0.5738720893859863, -0.3681183159351349, 0.3033963739871979], "weight": 1}, {"name": "miami hip hop", "preview_url": "https://p.scdn.co/mp3-preview/d527ddaab12b179d1cec2ad19d1514b8befe8fbf", "color": "#F2EE9C", "coordinates": [0.5292945504188538, 0.5109278559684753, -0.28299906849861145], "weight": 0}, {"name": "argentine rock", "preview_url": "https://p.scdn.co/mp3-preview/8643135dd3bed8ccc58e7702530d16c5f2e782e5", "color": "#F0929A", "coordinates": [-0.3981125056743622, -0.2578824758529663, -0.7598670721054077], "weight": 0}, {"name": "sertanejo pop", "preview_url": "https://p.scdn.co/mp3-preview/4cfaf79de15d0de9728980520e3fc1e80f486d5c", "color": "#E7E1C8", "coordinates": [0.41542989015579224, -0.6053431630134583, 0.47045549750328064], "weight": 0}, {"name": "tropical", "preview_url": "https://p.scdn.co/mp3-preview/19ec22ff7f245ccbf63467252bc04e0074ceefcc", "color": "#DF9C9D", "coordinates": [-0.38487815856933594, 0.1250428557395935, -0.78049635887146], "weight": 8}, {"name": "glam rock", "preview_url": "https://p.scdn.co/mp3-preview/140ac147a161594b2af013c36f29ee52495df989", "color": "#F3EFA4", "coordinates": [-0.3857218325138092, -0.24895930290222168, -0.7312800288200378], "weight": 0}, {"name": "funk carioca", "preview_url": "https://p.scdn.co/mp3-preview/00e6f782cba094089dc177063fe2db8cb0dcdc3b", "color": "#F984BF", "coordinates": [0.3075774013996124, -0.6347973942756653, -0.4047894775867462], "weight": 0}, {"name": "nigerian pop", "preview_url": "https://p.scdn.co/mp3-preview/1bb47d08b57daaa52ed24ee384a386107cf260fb", "color": "#989084", "coordinates": [0.6413988471031189, -0.418678879737854, 0.31972536444664], "weight": 0}, {"name": "argentine hip hop", "preview_url": "https://p.scdn.co/mp3-preview/83e28467673def81b5532925eed615b4da55c30f", "color": "#D9EBE6", "coordinates": [0.5881087183952332, 0.5684331059455872, -0.3179109990596771], "weight": 0}, {"name": "dark trap", "preview_url": "https://p.scdn.co/mp3-preview/654b151fb3c0c74e3805cabede80dd45f4d3ffdb", "color": "#E797EF", "coordinates": [-0.8087667226791382, -0.12754105031490326, 0.06616851687431335], "weight": 0}, {"name": "latin viral pop", "preview_url": "https://p.scdn.co/mp3-preview/c6b2cae3c5701c5403e3fa0cb752b8ae24c6d0d6", "color": "#FCCEBD", "coordinates": [0.5971613526344299, -0.39182332158088684, 0.3074706792831421], "weight": 0}, {"name": "piano rock", "preview_url": "https://p.scdn.co/mp3-preview/12219c6fd17e96b5196e2ec083d825ee8d13b8e3", "color": "#8EBB97", "coordinates": [-0.39058205485343933, -0.25165584683418274, -0.7403354644775391], "weight": 0}, {"name": "detroit hip hop", "preview_url": "https://p.scdn.co/mp3-preview/2c1fc587ef0dc9573dd9c6452e436e47f69a9719", "color": "#E7B4AF", "coordinates": [0.6100386381149292, 0.6235304474830627, 0.021393103525042534], "weight": 0}, {"name": "italian adult pop", "preview_url": "https://p.scdn.co/mp3-preview/a69b65da846f07b6ffb06e02a1914416208f7e33", "color": "#A78C8C", "coordinates": [0.6354244351387024, -0.4024045467376709, 0.31334128975868225], "weight": 0}, {"name": "country rock", "preview_url": "https://p.scdn.co/mp3-preview/13d49e04b9b549cf258c142773f90c2e457dd392", "color": "#AAA2B7", "coordinates": [-0.34593120217323303, 0.07171022891998291, -0.4574086368083954], "weight": 1}, {"name": "underground hip hop", "preview_url": "https://p.scdn.co/mp3-preview/7d078241996955770586cca4c131a0f40558473d", "color": "#8CA880", "coordinates": [0.5634318590164185, 0.5434249043464661, -0.306129515171051], "weight": 8}, {"name": "mexican hip hop", "preview_url": "https://p.scdn.co/mp3-preview/02245b0342a74112139e08d5a6bd80d349b305bd", "color": "#B8D493", "coordinates": [0.5484980940818787, 0.5276592373847961, -0.2954389750957489], "weight": 0}, {"name": "progressive electro house", "preview_url": "https://p.scdn.co/mp3-preview/fc6c1d0156677a3527dc7de9299a7137262761a4", "color": "#C2CFFB", "coordinates": [-0.4875662922859192, 0.4791090786457062, -0.046900708228349686], "weight": 0}, {"name": "synthpop", "preview_url": "https://p.scdn.co/mp3-preview/a3a5b270a25d4af63e81d324be86adeb536f5659", "color": "#9F9BAA", "coordinates": [0.5376822352409363, -0.34730103611946106, 0.2886430323123932], "weight": 10}, {"name": "metropopolis", "preview_url": "https://p.scdn.co/mp3-preview/60c0795cc706877dc802903376c2d3a2ac370644", "color": "#C6D6E1", "coordinates": [0.6247693300247192, -0.4159504473209381, 0.32278725504875183], "weight": 0}, {"name": "garage rock", "preview_url": "https://p.scdn.co/mp3-preview/cc73c19243cd3f3a33b726d2bceec7d49429abc7", "color": "#F0E795", "coordinates": [-0.3473338186740875, -0.21898622810840607, -0.6546876430511475], "weight": 9}, {"name": "indie folk", "preview_url": "https://p.scdn.co/mp3-preview/3d04dae43ab370eb9042255a155e7a84381a3f8a", "color": "#F7C2E4", "coordinates": [0.0379943884909153, 0.7975062727928162, 0.10278837382793427], "weight": 13}, {"name": "vocal jazz", "preview_url": "https://p.scdn.co/mp3-preview/7a59310caa3447875d61882e5d5eda6ce150018c", "color": "#FF8490", "coordinates": [-0.308628648519516, 0.532674252986908, 0.2544846832752228], "weight": 3}, {"name": "classical", "preview_url": "https://p.scdn.co/mp3-preview/13025c200f29b51f981e9821274b18090cd7d2d0", "color": "#D1A3D4", "coordinates": [0.8604677319526672, -0.5860012769699097, -0.20334242284297943], "weight": 140}, {"name": "europop", "preview_url": "https://p.scdn.co/mp3-preview/eef43d18f73d83ff358852d874dd564f55e86932", "color": "#D39ED6", "coordinates": [0.6125515103340149, -0.39765432476997375, 0.30816659331321716], "weight": 0}, {"name": "progressive house", "preview_url": "https://p.scdn.co/mp3-preview/9f18c46f531313e319ff8db9554268e7bb1c586a", "color": "#EDEA8E", "coordinates": [-0.3019126355648041, 0.6106674075126648, 0.3842256963253021], "weight": 4}, {"name": "art rock", "preview_url": "https://p.scdn.co/mp3-preview/c82f78cdb980913052039da865227c934160df33", "color": "#A9E4D7", "coordinates": [-0.39450982213020325, -0.2574315667152405, -0.7547613382339478], "weight": 0}, {"name": "yacht rock", "preview_url": "https://p.scdn.co/mp3-preview/881049d7c8b8c47468326b0b1a4c57e70ff28944", "color": "#B39380", "coordinates": [-0.32318395376205444, -0.20396924018859863, -0.6119304895401001], "weight": 0}, {"name": "mpb", "preview_url": "https://p.scdn.co/mp3-preview/0ba092ccda5e2e6237cd15a9eadac6936bb0263b", "color": "#91E5AA", "coordinates": [-0.8753110766410828, 0.07890559732913971, -0.031539320945739746], "weight": 3}, {"name": "pagode", "preview_url": "https://p.scdn.co/mp3-preview/ae2ea19c6d7f8bb6fd5fb6ec2be8fd9a068a55e1", "color": "#8F96F1", "coordinates": [0.9593276977539062, -0.3679565191268921, -0.07197181135416031], "weight": 2}, {"name": "tropical house", "preview_url": "https://p.scdn.co/mp3-preview/de865e819c2ba4d4e2dbf04f505fe5a5c75dc99c", "color": "#F6EDBC", "coordinates": [-0.34757861495018005, 0.3858703374862671, -0.18527697026729584], "weight": 2}, {"name": "urbano espanol", "preview_url": "https://p.scdn.co/mp3-preview/37c30a46efb9e88375f5b4c38345dd29ae423dd4", "color": "#ACF2C5", "coordinates": [-0.5758079290390015, -0.08728897571563721, 0.40214577317237854], "weight": 0}, {"name": "chamber pop", "preview_url": "https://p.scdn.co/mp3-preview/59a07330c2c27ce938c105a5f72a8460825f3663", "color": "#FAA1AC", "coordinates": [0.6587367057800293, -0.42684072256088257, 0.33409345149993896], "weight": 0}, {"name": "rap francais", "preview_url": "https://p.scdn.co/mp3-preview/7d8d059f0e31f62b7637e4179130c6ecb3e1c391", "color": "#BFF2E1", "coordinates": [-0.7347633838653564, 0.2826925814151764, -0.14279630780220032], "weight": 3}, {"name": "dance rock", "preview_url": "https://p.scdn.co/mp3-preview/fa7015e65bf8da36eb49ef1fa02d247dbca2b293", "color": "#93E3B0", "coordinates": [-0.36105895042419434, -0.23215694725513458, -0.6868118643760681], "weight": 0}, {"name": "j-rock", "preview_url": "https://p.scdn.co/mp3-preview/5324f9b2323a3b870768c91249d4ef0e195fc9dd", "color": "#ABB5B4", "coordinates": [-0.41499054431915283, -0.26565754413604736, -0.7948752045631409], "weight": 2}, {"name": "polish hip hop", "preview_url": "https://p.scdn.co/mp3-preview/3b612c95da130182200549e5a4ca758077f64c71", "color": "#B58ECE", "coordinates": [0.5423783659934998, 0.5242716073989868, -0.2946327328681946], "weight": 0}, {"name": "sleep", "preview_url": "https://p.scdn.co/mp3-preview/2b6424283a97df5182999ca7f640d6f0edafbe1e", "color": "#E58181", "coordinates": [0.43353724479675293, 0.5886921286582947, -0.6390621066093445], "weight": 1}, {"name": "folk", "preview_url": "https://p.scdn.co/mp3-preview/2f36f4b121e69fabee732851380402a0028029d3", "color": "#CDDBCD", "coordinates": [0.04940115287899971, 0.8978980779647827, 0.10967577993869781], "weight": 201}, {"name": "anime", "preview_url": "https://p.scdn.co/mp3-preview/65c332d8b05c373ab3bbee46ceafe2d1a55059da", "color": "#C899E9", "coordinates": [0.635746955871582, -0.5269284844398499, -0.7228623628616333], "weight": 14}, {"name": "trap brasileiro", "preview_url": "https://p.scdn.co/mp3-preview/ffb6884aac810c2f3ba68663ff38cd2c09027ebe", "color": "#B7C8F9", "coordinates": [-0.7524576187133789, -0.11672896146774292, 0.0599505789577961], "weight": 1}, {"name": "disco", "preview_url": "https://p.scdn.co/mp3-preview/c8e62c272be0fd81117f2059aaa6b5eaaa1e5b73", "color": "#B5CDE6", "coordinates": [-0.6410879492759705, 0.7003844976425171, -0.002620697021484375], "weight": 15}, {"name": "pluggnb", "preview_url": "https://p.scdn.co/mp3-preview/cff3d7b4ebfb38ff4076ea9ace89e79a815387cb", "color": "#C2E5C5", "coordinates": [0.4423074722290039, -0.4225659668445587, -0.6422492265701294], "weight": 0}, {"name": "british soul", "preview_url": "https://p.scdn.co/mp3-preview/7c85f376ca9618554d26d16c4768431da5ce20af", "color": "#FBE6E5", "coordinates": [0.5477935671806335, 0.424477756023407, 0.5382251739501953], "weight": 0}, {"name": "metalcore", "preview_url": "https://p.scdn.co/mp3-preview/8e092b34292c9e65ebb185de3e118d15bfd39093", "color": "#EA9DF2", "coordinates": [-0.4522645175457001, 0.34907153248786926, 0.5479968786239624], "weight": 23}, {"name": "australian pop", "preview_url": "https://p.scdn.co/mp3-preview/803e0b2d3757f214588df21721da58a8425193b1", "color": "#A282DB", "coordinates": [0.700721025466919, -0.4529861807823181, 0.35225242376327515], "weight": 0}, {"name": "uk hip hop", "preview_url": "https://p.scdn.co/mp3-preview/f337aef4bda66c39b5405c5b67a968bc40d2e4e0", "color": "#BBFEB4", "coordinates": [0.5936901569366455, 0.5748593807220459, -0.32121914625167847], "weight": 1}, {"name": "gen z singer-songwriter", "preview_url": "https://p.scdn.co/mp3-preview/67258d7290a86faa76f0e433672986ec49b3a11e", "color": "#D38DCE", "coordinates": [0.2091415673494339, 0.4972495436668396, 0.29069089889526367], "weight": 0}, {"name": "electropop", "preview_url": "https://p.scdn.co/mp3-preview/1842c05cf1ff91f264b06f7ef3f24ac9f9d0235d", "color": "#D1BEE2", "coordinates": [0.08046301454305649, -0.10651272535324097, -0.04416028410196304], "weight": 10}, {"name": "big room", "preview_url": "https://p.scdn.co/mp3-preview/8d5e61c131a131747bae6c175b7bb7e2ab87a00c", "color": "#C1DCDA", "coordinates": [0.33357852697372437, 0.8030897974967957, -0.4277595579624176], "weight": 1}, {"name": "forro", "preview_url": "https://p.scdn.co/mp3-preview/3f796e5e22e265a6053dbecccbb20a0f0a191c56", "color": "#A38082", "coordinates": [-0.6962184309959412, -0.10806167870759964, -0.49486321210861206], "weight": 5}, {"name": "swedish pop", "preview_url": "https://p.scdn.co/mp3-preview/36cf13b4e5318f5e11e4fcd3f62db48468379492", "color": "#CA9BB6", "coordinates": [0.7924626469612122, -0.5046620965003967, 0.4002563953399658], "weight": 4}, {"name": "classic oklahoma country", "preview_url": "https://p.scdn.co/mp3-preview/c532325862e13fc474846a96c49bf39a828aa2c3", "color": "#AD8C92", "coordinates": [-0.4888392686843872, 0.36943531036376953, -0.45658114552497864], "weight": 0}, {"name": "reggaeton flow", "preview_url": "https://p.scdn.co/mp3-preview/eeeec701e3156ea86afc34cd912ae01a09f01fe5", "color": "#CEECEE", "coordinates": [0.5730921626091003, 0.3432186245918274, -0.2525676488876343], "weight": 0}, {"name": "pop nacional", "preview_url": "https://p.scdn.co/mp3-preview/f648095024a94fb0a30c972d3995634a13375b88", "color": "#A4C6E0", "coordinates": [0.5658644437789917, -0.3583310544490814, 0.27817854285240173], "weight": 1}, {"name": "mexican rock", "preview_url": "https://p.scdn.co/mp3-preview/e45755421e33849a741dce2469f7e5817d8c682c", "color": "#C7D1D6", "coordinates": [-0.33769696950912476, -0.21855700016021729, -0.6377724409103394], "weight": 1}, {"name": "indie soul", "preview_url": "https://p.scdn.co/mp3-preview/632d6c82c76df12239b31e81936f7ca316a3d45b", "color": "#AABA81", "coordinates": [0.4987223744392395, 0.3774389326572418, 0.48206934332847595], "weight": 0}, {"name": "contemporary r&b", "preview_url": "https://p.scdn.co/mp3-preview/96a6dd3d7f26c1cc2cb74095c3a1c76852063ef2", "color": "#C2A182", "coordinates": [-0.10344088822603226, -0.4175185561180115, 0.46807894110679626], "weight": 2}, {"name": "folk-pop", "preview_url": "https://p.scdn.co/mp3-preview/91913c54e76ab68663419c0710d9fba7e2e9c82e", "color": "#9BA597", "coordinates": [0.4738887846469879, 0.08137430250644684, 0.27345752716064453], "weight": 0}, {"name": "white noise", "preview_url": "https://p.scdn.co/mp3-preview/33a9df76283fb2b0ef8a43cdb5acd77b3cd8f803", "color": "#E5D0EA", "coordinates": [0.46295708417892456, 0.48593249917030334, 0.2816031277179718], "weight": 0}, {"name": "pagode novo", "preview_url": "https://p.scdn.co/mp3-preview/86d6b63e64bae75be99316c7a1446baf24046e38", "color": "#C49E8D", "coordinates": [0.837462306022644, -0.3370223939418793, -0.05565789341926575], "weight": 0}, {"name": "soundtrack", "preview_url": "https://p.scdn.co/mp3-preview/65272decca1ff641e3491bc32ec076e891d08697", "color": "#9CB6F5", "coordinates": [-0.07692770659923553, -0.5881008505821228, 0.612376868724823], "weight": 17}, {"name": "funk metal", "preview_url": "https://p.scdn.co/mp3-preview/5a7418b48e2ce653e9f2fd5c68b74973d1ff18bf", "color": "#FB8FCE", "coordinates": [-0.09387531876564026, -0.19546286761760712, 0.08003782480955124], "weight": 0}, {"name": "grunge", "preview_url": "https://p.scdn.co/mp3-preview/1bc6b4e391d3d3f093a3b236bcf3ff91170c3e43", "color": "#FA94A8", "coordinates": [-0.5973526835441589, -0.22205829620361328, 0.730462372303009], "weight": 9}, {"name": "french pop", "preview_url": "https://p.scdn.co/mp3-preview/c4ea074194e84f4d281e0adebbcc21b660b4259b", "color": "#FB9EAA", "coordinates": [0.6108585596084595, -0.39943498373031616, 0.3135846257209778], "weight": 1}, {"name": "emo rap", "preview_url": "https://p.scdn.co/mp3-preview/7dfde7160ac2845663372b1da8fbf744326ef2fb", "color": "#F5A4DE", "coordinates": [-0.5419918894767761, -0.43749725818634033, 0.28419700264930725], "weight": 5}, {"name": "salsa", "preview_url": "https://p.scdn.co/mp3-preview/ccc6a1cc99620938ba32a8432b93c2bdd2e8d1d9", "color": "#BEA1AE", "coordinates": [-0.33087727427482605, 0.8245170712471008, -0.012327389791607857], "weight": 10}, {"name": "rain", "preview_url": "https://p.scdn.co/mp3-preview/78526a03bdf71e1293c825f8f65b9bc54560d971", "color": "#818DE7", "coordinates": [-0.37736549973487854, 0.47651413083076477, -0.24949398636817932], "weight": 28}, {"name": "r&b francais", "preview_url": "https://p.scdn.co/mp3-preview/620e4ead4be92e33aeda73aeaa54046830c5bc5c", "color": "#BBDA81", "coordinates": [-0.38121262192726135, 0.027700310572981834, 0.20083089172840118], "weight": 0}, {"name": "lgbtq+ hip hop", "preview_url": "https://p.scdn.co/mp3-preview/e1ca895f1408a9befc30d18f4cefe2ed19163ecb", "color": "#C1BBB2", "coordinates": [0.6320062279701233, 0.6130848526954651, -0.34136471152305603], "weight": 0}, {"name": "turkish rock", "preview_url": "https://p.scdn.co/mp3-preview/3fd76c35dd584858b3506d00b2b6106340411d10", "color": "#8CB198", "coordinates": [-0.33904096484184265, -0.2145753651857376, -0.6418768167495728], "weight": 0}, {"name": "memphis hip hop", "preview_url": "https://p.scdn.co/mp3-preview/fa0b03f966fef8984c484d2bf06c86f8c43b74d7", "color": "#DCEAA3", "coordinates": [0.54683518409729, 0.5276107788085938, -0.2977703809738159], "weight": 0}, {"name": "mariachi", "preview_url": "https://p.scdn.co/mp3-preview/4a82ad861eef70378068813c7ac9e6ac6f9eb935", "color": "#EBD3C0", "coordinates": [-0.2939871549606323, -0.2783414125442505, 0.8907809853553772], "weight": 1}, {"name": "classic soul", "preview_url": "https://p.scdn.co/mp3-preview/aaa5ade3fb7152515dc70e4814d98ccff6d91be9", "color": "#C9ADD1", "coordinates": [0.5641652941703796, 0.4377034604549408, 0.5568143725395203], "weight": 0}, {"name": "funk mtg", "preview_url": "https://p.scdn.co/mp3-preview/1338c58c38aefa05be096424a64cac2e6f6a1b29", "color": "#8BA7AA", "coordinates": [0.3397555351257324, -0.7089866995811462, -0.46093472838401794], "weight": 0}, {"name": "trap triste", "preview_url": "https://p.scdn.co/mp3-preview/0e73b1f9c765d92072892f72d8845f4460743abf", "color": "#BBBCE7", "coordinates": [-0.7663341164588928, -0.12020042538642883, 0.06243182346224785], "weight": 0}, {"name": "dirty south rap", "preview_url": "https://p.scdn.co/mp3-preview/fd5772f3ae3cb39081bf578929ebe1e0790f1e8a", "color": "#91AAB5", "coordinates": [-0.6961901187896729, -0.1073385626077652, 0.05542854592204094], "weight": 0}, {"name": "melodic metalcore", "preview_url": "https://p.scdn.co/mp3-preview/819ad3103bc07695733e8148d15a569a08041464", "color": "#B998CF", "coordinates": [-0.45425647497177124, 0.3511737585067749, 0.5560048818588257], "weight": 1}, {"name": "blues rock", "preview_url": "https://p.scdn.co/mp3-preview/8563d016ae70ed290ba446194adbe39f0cbf3cdb", "color": "#80D2F3", "coordinates": [0.21383611857891083, 0.08834908902645111, -0.2992708384990692], "weight": 1}, {"name": "alternative hip hop", "preview_url": "https://p.scdn.co/mp3-preview/e509ca2df41771f01e4f5ca6fad82ba6827d5423", "color": "#E7E582", "coordinates": [0.13100367784500122, 0.5998736619949341, -0.47200027108192444], "weight": 1}, {"name": "pop soul", "preview_url": "https://p.scdn.co/mp3-preview/3970f8df24bee0f6bbed7357e000d1b14e044628", "color": "#E2DEE9", "coordinates": [0.7315490245819092, -0.015819502994418144, 0.5255803465843201], "weight": 0}, {"name": "brazilian gospel", "preview_url": "https://p.scdn.co/mp3-preview/8807f93fb5e89db553829884577225650d24a0ad", "color": "#A7DFFD", "coordinates": [-0.30804887413978577, -0.482530802488327, -0.30682843923568726], "weight": 0}, {"name": "outlaw country", "preview_url": "https://p.scdn.co/mp3-preview/444145a43f331b42343b9c4b4e6d300eb3c178b5", "color": "#B987A6", "coordinates": [-0.4208148717880249, 0.32840704917907715, -0.39543333649635315], "weight": 0}, {"name": "orchestral soundtrack", "preview_url": "https://p.scdn.co/mp3-preview/e8ec3e571c1898f6959896f0e081d8e4e7108dc7", "color": "#A881C6", "coordinates": [-0.24328145384788513, -0.617517352104187, 0.1116301640868187], "weight": 0}, {"name": "dutch house", "preview_url": "https://p.scdn.co/mp3-preview/f81e2e8a2bb25f1c8eedd11622ca9cfdb8eb9cd4", "color": "#F7F4F6", "coordinates": [-0.31046053767204285, 0.6408834457397461, 0.40456321835517883], "weight": 0}, {"name": "turkish hip hop", "preview_url": "https://p.scdn.co/mp3-preview/202637ec2c18111a4ce5c5c141e9270b3af029fe", "color": "#CEE4AC", "coordinates": [0.4390583336353302, 0.41478368639945984, -0.246319979429245], "weight": 0}, {"name": "queens hip hop", "preview_url": "https://p.scdn.co/mp3-preview/0f64f9256df3a68f05e59f6478fb4de8e1b79c29", "color": "#F3A4E9", "coordinates": [0.5139709711074829, 0.4975932240486145, -0.28084078431129456], "weight": 0}, {"name": "christian alternative rock", "preview_url": "https://p.scdn.co/mp3-preview/e7d1c84e75a3dfebf350d2a33fc25bfd64684a19", "color": "#F0AEE0", "coordinates": [-0.36863139271736145, 0.132109135389328, -0.6218916773796082], "weight": 0}, {"name": "mandopop", "preview_url": "https://p.scdn.co/mp3-preview/b2f0df35d5194e7889bc92d44b67424bc080ad9e", "color": "#AAD2C7", "coordinates": [0.6482744812965393, -0.4226239323616028, 0.33012714982032776], "weight": 3}, {"name": "lounge", "preview_url": "https://p.scdn.co/mp3-preview/6f8162900d7dada097b6bbff356b85640655488c", "color": "#E68AA4", "coordinates": [-0.83987957239151, -0.003845551051199436, 0.3517638146877289], "weight": 5}, {"name": "worship", "preview_url": "https://p.scdn.co/mp3-preview/9016102e1dcf0f3aaa4551783d3540156cb8479d", "color": "#DB82C1", "coordinates": [-0.1777442842721939, -0.3692106604576111, -0.8046923279762268], "weight": 30}, {"name": "dfw rap", "preview_url": "https://p.scdn.co/mp3-preview/54d242c4fafada31774b8ee17e5535c3e7044137", "color": "#D28EC0", "coordinates": [-0.6579157114028931, -0.11041619628667831, 0.05511770769953728], "weight": 0}, {"name": "electronica", "preview_url": "https://p.scdn.co/mp3-preview/723823fc69400fdf4dd0ada971633170961b668e", "color": "#E292D6", "coordinates": [-0.5533731579780579, 0.26511508226394653, -0.42164841294288635], "weight": 9}, {"name": "pixel", "preview_url": "https://p.scdn.co/mp3-preview/f0035907fef89569c5c272a045d27362f9178190", "color": "#FF928E", "coordinates": [-0.576789379119873, 0.17690308392047882, 0.7455005049705505], "weight": 1}, {"name": "trap italiana", "preview_url": "https://p.scdn.co/mp3-preview/51f2869cd1e18f288936f220bd44662d63705613", "color": "#D4C0E9", "coordinates": [-0.6763562560081482, -0.101617231965065, 0.05361423268914223], "weight": 1}, {"name": "pop reggaeton", "preview_url": "https://p.scdn.co/mp3-preview/8f78ea09b3efe7211c95f7cde273219b074164d2", "color": "#E999F9", "coordinates": [0.7305455803871155, 0.054086096584796906, -0.031144922599196434], "weight": 0}, {"name": "new orleans rap", "preview_url": "https://p.scdn.co/mp3-preview/f96e2b17738c2d76e5aac4da19b9fce951f95ac0", "color": "#95BDEA", "coordinates": [-0.7642521858215332, -0.12174668908119202, 0.06439825892448425], "weight": 0}, {"name": "rock-and-roll", "preview_url": "https://p.scdn.co/mp3-preview/9ec42ccff69fddc168527bbb16e7aebf2d4e3476", "color": "#D4C5A0", "coordinates": [-0.4076203405857086, -0.267383873462677, -0.7747102975845337], "weight": 3}, {"name": "funk", "preview_url": "https://p.scdn.co/mp3-preview/0828205618d475ae2cb78ec293777236db583054", "color": "#EAF185", "coordinates": [0.38000333309173584, -0.8194615840911865, -0.5383602976799011], "weight": 49}, {"name": "motown", "preview_url": "https://p.scdn.co/mp3-preview/cbec6992f014a194274675a7aaa6ca21e22b0b81", "color": "#B29ECB", "coordinates": [-0.7083752155303955, -0.2786533534526825, 0.614395260810852], "weight": 1}, {"name": "japanese teen pop", "preview_url": "https://p.scdn.co/mp3-preview/5044bb36b2e18a75a64effb1e2004c0ed42f734b", "color": "#908DB9", "coordinates": [0.6028445363044739, -0.39690643548965454, 0.3016606271266937], "weight": 0}, {"name": "brazilian hip hop", "preview_url": "https://p.scdn.co/mp3-preview/11cdc638ff43a7945ef9d05e26474428f8ee724a", "color": "#F0B481", "coordinates": [0.5838714241981506, 0.5647150874137878, -0.31643372774124146], "weight": 0}, {"name": "gruperas inmortales", "preview_url": "https://p.scdn.co/mp3-preview/8662223b1d26db0381a08ea0a63711a431dfbbeb", "color": "#A48399", "coordinates": [0.7467055916786194, -0.32304972410202026, -0.1286354809999466], "weight": 0}, {"name": "kleine hoerspiel", "preview_url": "https://p.scdn.co/mp3-preview/c1b1ae1b74839ea4544d4a87583472d8e1fa5fdf", "color": "#D2DCB7", "coordinates": [0.6838040947914124, 0.25330230593681335, -0.304426908493042], "weight": 0}, {"name": "indie poptimism", "preview_url": "https://p.scdn.co/mp3-preview/486e4d5f749ef21c21981f4076f2c134a0961349", "color": "#EA9EA6", "coordinates": [0.6031244397163391, -0.4003225564956665, 0.30639344453811646], "weight": 0}, {"name": "dream pop", "preview_url": "https://p.scdn.co/mp3-preview/1bdf9462299ead9b3ac560a82ed871195550e115", "color": "#CFC0FE", "coordinates": [0.773562490940094, -0.4952072501182556, 0.39139416813850403], "weight": 5}, {"name": "rap conscient", "preview_url": "https://p.scdn.co/mp3-preview/a4d3630f17d3decd9889c6518292cc4fc090a521", "color": "#E89489", "coordinates": [-0.6473221182823181, -0.10190419107675552, 0.05182522162795067], "weight": 0}, {"name": "neo-synthpop", "preview_url": "https://p.scdn.co/mp3-preview/551fa43f4dc5cf78435eb1ed2de49faa2bb1398e", "color": "#EEC1A2", "coordinates": [0.6170995235443115, -0.39789408445358276, 0.32127949595451355], "weight": 1}, {"name": "funk rock", "preview_url": "https://p.scdn.co/mp3-preview/32eb8ce9e7c32c8a90cc356ef418f4ccc4206d12", "color": "#F4F7A9", "coordinates": [-0.01304411981254816, -0.5226511359214783, -0.6337448358535767], "weight": 0}, {"name": "bolero", "preview_url": "https://p.scdn.co/mp3-preview/ed020841439111d9783d0cb075a687383e280838", "color": "#F7EDC9", "coordinates": [-0.3590451776981354, -0.7943474650382996, 0.3687363564968109], "weight": 3}, {"name": "g funk", "preview_url": "https://p.scdn.co/mp3-preview/e6fc6783f34de9fcba43f4549ea8889d0eae34c7", "color": "#C5E893", "coordinates": [0.35540905594825745, -0.7491744756698608, -0.48913756012916565], "weight": 1}, {"name": "barbadian pop", "preview_url": "https://p.scdn.co/mp3-preview/4867c966b9507afb13c4653a0f7ee4a08999f774", "color": "#C8A7A7", "coordinates": [0.7000381946563721, -0.45062360167503357, 0.3556534945964813], "weight": 0}, {"name": "progressive rock", "preview_url": "https://p.scdn.co/mp3-preview/057d5caf3148d48d357f5cce33f1e01cf1de2a0a", "color": "#B8EDB7", "coordinates": [-0.32521021366119385, -0.20635873079299927, -0.6138911247253418], "weight": 5}, {"name": "eurodance", "preview_url": "https://p.scdn.co/mp3-preview/ae7019859326cbe15f2bfeb87c16bfb4486d1316", "color": "#AFBFD5", "coordinates": [0.5814712643623352, 0.4934340715408325, 0.6740680932998657], "weight": 2}, {"name": "hardcore hip hop", "preview_url": "https://p.scdn.co/mp3-preview/8062e443b38b4722016771eefe939c5b4de62c34", "color": "#C3FED6", "coordinates": [0.05526816099882126, -0.03264479711651802, -0.35135525465011597], "weight": 0}, {"name": "bachata", "preview_url": "https://p.scdn.co/mp3-preview/d8b350d146fd8c5903eab1a61fd3515352d85cb0", "color": "#8EA9E3", "coordinates": [-0.07854574173688889, -0.9501791596412659, -0.37113648653030396], "weight": 1}, {"name": "neon pop punk", "preview_url": "https://p.scdn.co/mp3-preview/6e23fcc4affb471e1a2077e1b23cc7ff240c0060", "color": "#B9E08C", "coordinates": [0.7284520268440247, -0.6068032383918762, -0.06139638274908066], "weight": 0}, {"name": "emo", "preview_url": "https://p.scdn.co/mp3-preview/3349afe908060946bd6a01a38267e49a70208b6d", "color": "#93E9CC", "coordinates": [-0.26929184794425964, -0.7964415550231934, 0.5346815586090088], "weight": 36}, {"name": "trap boricua", "preview_url": "https://p.scdn.co/mp3-preview/e13e93616265ee6f5cbb67269da4a178ba346f8c", "color": "#B2ABF2", "coordinates": [-0.7358747720718384, -0.11676160991191864, 0.06074707210063934], "weight": 0}, {"name": "brazilian rock", "preview_url": "https://p.scdn.co/mp3-preview/16e478ed3dd84061a7882efd75b79ffa8e1d6b83", "color": "#CE89DC", "coordinates": [-0.35504627227783203, -0.22537051141262054, -0.6653372049331665], "weight": 1}, {"name": "funk paulista", "preview_url": "https://p.scdn.co/mp3-preview/236050632395ace120057bc92556125f4bf0e1dd", "color": "#B3BEC2", "coordinates": [0.3013705313205719, -0.6206539273262024, -0.39654266834259033], "weight": 0}, {"name": "pop venezolano", "preview_url": "https://p.scdn.co/mp3-preview/cd640225ee0b6306f94490b3e6e73289f9b10da8", "color": "#C7D181", "coordinates": [0.7508540153503418, -0.48218831419944763, 0.3802657127380371], "weight": 0}, {"name": "cantautor", "preview_url": "https://p.scdn.co/mp3-preview/cfdb3c31b1b2cf09906e6e1a6aa7dd9fd61d5ef6", "color": "#CDA6B2", "coordinates": [-0.46534454822540283, -0.33505958318710327, 0.7219585180282593], "weight": 3}, {"name": "chanson", "preview_url": "https://p.scdn.co/mp3-preview/8de86861b43512362a32d9e5afb72ae98a9a6a14", "color": "#D7A3D8", "coordinates": [0.9871432185173035, 0.008052301593124866, -0.1971326619386673], "weight": 7}, {"name": "drift phonk", "preview_url": "https://p.scdn.co/mp3-preview/e52056a3d33db0970f54c7e11279f249f22c240e", "color": "#9AFEEF", "coordinates": [0.3535027801990509, -0.5837493538856506, 0.33413228392601013], "weight": 0}, {"name": "florida rap", "preview_url": "https://p.scdn.co/mp3-preview/01436bb0e29cccb34b8c6ebcaf6a8281afad7706", "color": "#9DADE4", "coordinates": [-0.6215561032295227, -0.10891088098287582, 0.04586032032966614], "weight": 0}, {"name": "bedroom r&b", "preview_url": "https://p.scdn.co/mp3-preview/8d87e94c903f33da7daf9d2dc6c7b57039cc87c1", "color": "#EA8DFF", "coordinates": [-0.1727600395679474, -0.586250364780426, 0.6731468439102173], "weight": 0}, {"name": "latin christian", "preview_url": "https://p.scdn.co/mp3-preview/8f9a7fb3ee6f52b149f29c2a4b2c7b9ac08f21bf", "color": "#CBD49D", "coordinates": [-0.601392924785614, -0.4184468984603882, -0.7172141075134277], "weight": 1}, {"name": "movie tunes", "preview_url": "https://p.scdn.co/mp3-preview/3994419c9a602c540f11b33ede826192599f5b42", "color": "#A3BCD2", "coordinates": [-0.9120979905128479, -0.042092762887477875, 0.000661608122754842], "weight": 1}, {"name": "indonesian pop rock", "preview_url": "https://p.scdn.co/mp3-preview/107e88a51e41fbc38053da136aa4377773557faf", "color": "#E6CA9E", "coordinates": [0.2768687605857849, -0.40189239382743835, -0.103986956179142], "weight": 0}, {"name": "russian hip hop", "preview_url": "https://p.scdn.co/mp3-preview/698a4fff69e075d39d5a4cfe93cb8ff01ae21dcb", "color": "#BEB5A8", "coordinates": [0.5465307235717773, 0.5252071619033813, -0.2956967055797577], "weight": 0}, {"name": "spanish hip hop", "preview_url": "https://p.scdn.co/mp3-preview/c83540ca17405c55686d13453d2fc8576a440cbb", "color": "#FBDAA6", "coordinates": [0.012621631845831871, 0.26586130261421204, 0.04908658191561699], "weight": 0}, {"name": "cali rap", "preview_url": "https://p.scdn.co/mp3-preview/9e5d10beeb9088f6970b68d0e4b6fa94503847ee", "color": "#9C9FC8", "coordinates": [-0.8438658714294434, -0.13578034937381744, 0.0686565563082695], "weight": 0}, {"name": "dancehall", "preview_url": "https://p.scdn.co/mp3-preview/638c3ebeb323434e0149984657a9af6277493253", "color": "#E19A93", "coordinates": [-0.27033504843711853, 0.44762206077575684, -0.8161635994911194], "weight": 10}, {"name": "brooklyn drill", "preview_url": "https://p.scdn.co/mp3-preview/706f70ffcadb018b2f45707ffc33b1df2702571c", "color": "#88A6A7", "coordinates": [-0.37505897879600525, 0.3714379072189331, -0.46640661358833313], "weight": 0}, {"name": "trap queen", "preview_url": "https://p.scdn.co/mp3-preview/66dbda13ccfbb397b607852e73c7d1b406e5cca8", "color": "#E3CF88", "coordinates": [-0.7046762704849243, -0.10791526734828949, 0.05468194931745529], "weight": 0}, {"name": "color noise", "preview_url": "https://p.scdn.co/mp3-preview/af36902389ef0d15dd744083a3d3c71d15a54d50", "color": "#84B5D1", "coordinates": [0.48503565788269043, 0.5108753442764282, 0.29239216446876526], "weight": 0}, {"name": "children's music", "preview_url": "https://p.scdn.co/mp3-preview/e164782566f1fc73e8b9bf658ad0ae83b2a4a4ea", "color": "#929C9E", "coordinates": [-0.09951350092887878, -0.9012154340744019, 0.48991772532463074], "weight": 5}, {"name": "world worship", "preview_url": "https://p.scdn.co/mp3-preview/9f5231a76ac7f7e2d828098fe229aa4e9b042c1d", "color": "#DF91ED", "coordinates": [-0.3259868025779724, 0.10593953728675842, -0.5446265935897827], "weight": 0}, {"name": "urbano mexicano", "preview_url": "https://p.scdn.co/mp3-preview/8b79d76e40740dddaa530134f55a4b6064c77688", "color": "#DDCF90", "coordinates": [-0.292307049036026, 0.2741505801677704, -0.6888088583946228], "weight": 1}, {"name": "classic texas country", "preview_url": "https://p.scdn.co/mp3-preview/b75852c4cb27d406c353bfcff0fd5625132fb387", "color": "#8DFD91", "coordinates": [-0.512576699256897, 0.3884667754173279, -0.4797798991203308], "weight": 0}, {"name": "modern indie pop", "preview_url": "https://p.scdn.co/mp3-preview/016b64fab172993ff27bdba618f7110a9e23626f", "color": "#B780AE", "coordinates": [0.6372830271720886, -0.419722318649292, 0.3279755711555481], "weight": 0}, {"name": "funk rj", "preview_url": "https://p.scdn.co/mp3-preview/2e7253404c1cf5fbc9a076fad70f8d3e3f90dc15", "color": "#99BDBF", "coordinates": [0.3382430672645569, -0.7050071358680725, -0.45865634083747864], "weight": 0}, {"name": "plugg", "preview_url": "https://p.scdn.co/mp3-preview/0cfdef75b67dc8bf02bb3c67be784feb5d1a0ea6", "color": "#B0F385", "coordinates": [0.5025374293327332, -0.4754434823989868, -0.751106321811676], "weight": 7}, {"name": "anime rock", "preview_url": "https://p.scdn.co/mp3-preview/693b69d10a7a92804e9c8568fe0eac2903b0de8e", "color": "#C0CEEC", "coordinates": [0.11014917492866516, -0.3991541862487793, -0.7542780637741089], "weight": 0}, {"name": "reggae fusion", "preview_url": "https://p.scdn.co/mp3-preview/eb1302e4ee382e29bd9b3bb053ba05fd8f0831b1", "color": "#93FE95", "coordinates": [0.6985053420066833, 0.4204898774623871, -0.30975455045700073], "weight": 1}, {"name": "shoegaze", "preview_url": "https://p.scdn.co/mp3-preview/c47ffeed1dfaaf95a2a3e0ef1c750126dec83493", "color": "#E1BFB5", "coordinates": [0.44667142629623413, 0.12045077234506607, 0.8541861772537231], "weight": 16}, {"name": "tamil hip hop", "preview_url": "https://p.scdn.co/mp3-preview/03053e6b75209280db35ed3cebbcc9031b32fc71", "color": "#C3E488", "coordinates": [0.4343689978122711, 0.40220436453819275, -0.237553209066391], "weight": 0}, {"name": "britpop", "preview_url": "https://p.scdn.co/mp3-preview/965410f1ef2fedb9474077ae8c6f4de167493863", "color": "#BFDA9F", "coordinates": [0.7148690223693848, -0.46276524662971497, 0.36282822489738464], "weight": 1}, {"name": "australian rock", "preview_url": "https://p.scdn.co/mp3-preview/fa455b5b7cbb1d8346f3225579ec23b43e98301c", "color": "#EC9FB1", "coordinates": [-0.3378719389438629, -0.21578897535800934, -0.6448491811752319], "weight": 1}, {"name": "industrial metal", "preview_url": "https://p.scdn.co/mp3-preview/38a15a5372657e385d7481dcfd28a37f7ca666c7", "color": "#D588ED", "coordinates": [0.14838269352912903, 0.22059011459350586, 0.6095517873764038], "weight": 0}, {"name": "baroque pop", "preview_url": "https://p.scdn.co/mp3-preview/a44b56383dcc268ffa68d802e7f39f20f2e23e66", "color": "#8484FF", "coordinates": [0.7316007614135742, -0.5336785912513733, 0.01850699819624424], "weight": 0}, {"name": "pop argentino", "preview_url": "https://p.scdn.co/mp3-preview/53bc9a1d933c4ff4bba5201e06b6e2bb443340d6", "color": "#EAADBB", "coordinates": [0.6732670068740845, -0.4338792562484741, 0.34386512637138367], "weight": 0}, {"name": "r&b en espanol", "preview_url": "https://p.scdn.co/mp3-preview/2af7375deca4e01a75e489b1c836be677d1f673e", "color": "#FCD188", "coordinates": [-0.3215647041797638, -0.3315048813819885, 0.5054054260253906], "weight": 0}, {"name": "trance", "preview_url": "https://p.scdn.co/mp3-preview/f5772c1fee26107803f17f0bade49c83829adebd", "color": "#E9B8F3", "coordinates": [0.38096365332603455, -0.5592307448387146, 0.7957826852798462], "weight": 33}, {"name": "turkish trap", "preview_url": "https://p.scdn.co/mp3-preview/6af23872e06cd6d8b7e8af8cf987982020b0583d", "color": "#95B0AA", "coordinates": [-0.8092244863510132, -0.1277184635400772, 0.06608817726373672], "weight": 1}, {"name": "thai pop", "preview_url": "https://p.scdn.co/mp3-preview/92cef0dce8ab6b4ed3e6bd581c081f8bd766a96e", "color": "#BBFFD9", "coordinates": [0.1316123753786087, 0.09551257640123367, 0.026080289855599403], "weight": 2}, {"name": "indian instrumental", "preview_url": "https://p.scdn.co/mp3-preview/c4b8fc3cfd2d9484677de3ca684ded6a5aead918", "color": "#C79CF4", "coordinates": [-0.7052490711212158, 0.3633421063423157, -0.2383115589618683], "weight": 1}, {"name": "downtempo", "preview_url": "https://p.scdn.co/mp3-preview/f146deae97241ece5e4f6c08b9acc8404882f0f8", "color": "#F3F3C4", "coordinates": [-0.5786072015762329, -0.5401467680931091, 0.4863797724246979], "weight": 5}, {"name": "southern rock", "preview_url": "https://p.scdn.co/mp3-preview/cce2af85a8eb18fb3799d6e0329b6365e02e1585", "color": "#84ACAD", "coordinates": [-0.2889656126499176, -0.18566109240055084, -0.5506546497344971], "weight": 1}, {"name": "sophisti-pop", "preview_url": "https://p.scdn.co/mp3-preview/ad9ef06d5f0b61e72c9e2b2fc9ecdb385b47b522", "color": "#BEE5DE", "coordinates": [0.6473416686058044, -0.41980159282684326, 0.3303258419036865], "weight": 0}, {"name": "punjabi hip hop", "preview_url": "https://p.scdn.co/mp3-preview/d8558758fcd98e19539148ba111049b50fef77b5", "color": "#CEF599", "coordinates": [0.5663769841194153, 0.5474452972412109, -0.3079397678375244], "weight": 0}, {"name": "polish trap", "preview_url": "https://p.scdn.co/mp3-preview/252de4a2ccc52eca5e9e49d4d1a61fad5643bfe7", "color": "#C28DDF", "coordinates": [-0.7772930860519409, -0.12265100330114365, 0.06404361128807068], "weight": 0}, {"name": "socal pop punk", "preview_url": "https://p.scdn.co/mp3-preview/57fdde57e91580d4acf94f690ae7b2239fdcc9fb", "color": "#B1868D", "coordinates": [0.5278695225715637, -0.11371413618326187, 0.08060137927532196], "weight": 0}, {"name": "candy pop", "preview_url": "https://p.scdn.co/mp3-preview/c19460dcc25199f4514c2f08fa912668b18dd921", "color": "#BDE7C8", "coordinates": [0.6793590188026428, -0.44046148657798767, 0.3392813205718994], "weight": 0}, {"name": "tamil pop", "preview_url": "https://p.scdn.co/mp3-preview/3e52509dc6d6a15657128a9830fce17d43d38602", "color": "#E9C6F7", "coordinates": [0.6028484106063843, -0.3981393873691559, 0.31577953696250916], "weight": 1}, {"name": "rockabilly", "preview_url": "https://p.scdn.co/mp3-preview/ac03d09d91b7e32a83cf73f8230d2f8e52c8c16e", "color": "#A88FE0", "coordinates": [-0.34817203879356384, -0.21920210123062134, -0.6584267020225525], "weight": 15}, {"name": "girl group", "preview_url": "https://p.scdn.co/mp3-preview/f3ccf0ddca7297fc02c0e98dc45fe9538b587884", "color": "#FBC481", "coordinates": [-0.8099358677864075, -0.2917954921722412, 0.2856792211532593], "weight": 5}, {"name": "uk contemporary r&b", "preview_url": "https://p.scdn.co/mp3-preview/6a52d94723c825a92f1198a294694bcf304a2b16", "color": "#DAD1FF", "coordinates": [-0.14361229538917542, -0.5170648097991943, 0.5893201231956482], "weight": 0}, {"name": "atl trap", "preview_url": "https://p.scdn.co/mp3-preview/222d2d396505aa3f9a131d4f8570e1c4a1b7dcd0", "color": "#ECB6F3", "coordinates": [-0.7980678081512451, -0.12529356777668, 0.06536337733268738], "weight": 0}, {"name": "compositional ambient", "preview_url": "https://p.scdn.co/mp3-preview/cdf16706e57a63373e0969bf6b1de5a0cfa47550", "color": "#C4918E", "coordinates": [-0.287206768989563, 0.19180646538734436, -0.7005969285964966], "weight": 0}, {"name": "gym phonk", "preview_url": "https://p.scdn.co/mp3-preview/ab277b6ac2034d46de99481019b7c1330d54f4c2", "color": "#E8A2CB", "coordinates": [0.6859114170074463, -0.2793913781642914, 0.0739637091755867], "weight": 0}, {"name": "north carolina hip hop", "preview_url": "https://p.scdn.co/mp3-preview/e160a7dc252dbf6a8078912f3df5b4168ed2b80e", "color": "#B1ADD0", "coordinates": [0.4350762367248535, 0.3980037271976471, -0.22198201715946198], "weight": 0}, {"name": "dark r&b", "preview_url": "https://p.scdn.co/mp3-preview/23ce3dcb7b6536a2fa6be684cfa9d8306de6f70f", "color": "#D9C3E7", "coordinates": [-0.13537076115608215, -0.48843565583229065, 0.5603885650634766], "weight": 0}, {"name": "country dawn", "preview_url": "https://p.scdn.co/mp3-preview/940467459b73c6524c61ade32527ab1a7d0288a2", "color": "#86FBB5", "coordinates": [-0.42456579208374023, 0.31118354201316833, -0.38788601756095886], "weight": 0}, {"name": "symphonic rock", "preview_url": "https://p.scdn.co/mp3-preview/6edfb135549e2fc92671e8c8a4dd365155fa06ad", "color": "#BF8E96", "coordinates": [-0.33162713050842285, -0.21150635182857513, -0.6166244745254517], "weight": 0}, {"name": "tennessee hip hop", "preview_url": "https://p.scdn.co/mp3-preview/b5dabb851b93b5cbc5f0645da5f233a4adbb926a", "color": "#C6BBBC", "coordinates": [0.49434638023376465, 0.4642983376979828, -0.26447156071662903], "weight": 0}, {"name": "instrumental lullaby", "preview_url": "https://p.scdn.co/mp3-preview/9473955d70bdd1826fdc1c70e9a923dfe83e574c", "color": "#DEA3F2", "coordinates": [0.8484787940979004, 0.0850653275847435, 0.21989616751670837], "weight": 0}, {"name": "pittsburgh rap", "preview_url": "https://p.scdn.co/mp3-preview/e674534b690a7d76c007756e7093c7800a111fee", "color": "#93A081", "coordinates": [-0.6604906916618347, -0.10723022371530533, 0.05744042992591858], "weight": 0}, {"name": "thrash metal", "preview_url": "https://p.scdn.co/mp3-preview/018e926df98287b0e47c5d7abcfe0c57fca235dd", "color": "#ADDFC5", "coordinates": [-0.3874937891960144, 0.30105146765708923, 0.4760139584541321], "weight": 9}, {"name": "afropop", "preview_url": "https://p.scdn.co/mp3-preview/da40b8a3933b0f36e8a05f48d53d7676f1f4f697", "color": "#E1FF8B", "coordinates": [0.8198301792144775, -0.5244607329368591, 0.4198818504810333], "weight": 1}, {"name": "screamo", "preview_url": "https://p.scdn.co/mp3-preview/5fcd9fee75c15fcc3f4362f651101481f8cae998", "color": "#DEC9E0", "coordinates": [-0.8055106997489929, 0.3458675444126129, 0.2702982723712921], "weight": 6}, {"name": "canadian rock", "preview_url": "https://p.scdn.co/mp3-preview/57c64f81c911bcc5ab8bf5061c95f18e69f6b54d", "color": "#DC9882", "coordinates": [-0.3997080624103546, -0.26263901591300964, -0.7595362663269043], "weight": 2}, {"name": "melodic drill", "preview_url": "https://p.scdn.co/mp3-preview/e65f04840ec38dbd44ae91e78c0dfa186e24f468", "color": "#8BD1FE", "coordinates": [-0.38917988538742065, 0.3872004747390747, -0.48784035444259644], "weight": 0}, {"name": "nyc rap", "preview_url": "https://p.scdn.co/mp3-preview/6b2c4703cb27147a036b7e0acae9f3d0116e8a47", "color": "#A8FDDF", "coordinates": [-0.7010338306427002, -0.11041118204593658, 0.05834048241376877], "weight": 0}, {"name": "modern blues rock", "preview_url": "https://p.scdn.co/mp3-preview/6da5342d447bb2bbf372cf64d8f321d6e8e0c72d", "color": "#B0BE93", "coordinates": [0.2779848575592041, 0.12696558237075806, -0.22890393435955048], "weight": 0}, {"name": "rock nacional brasileiro", "preview_url": "https://p.scdn.co/mp3-preview/6e94837c8b90a2077f1e1791874e52c1af268e35", "color": "#C9DFF8", "coordinates": [-0.35580974817276, -0.22488291561603546, -0.6703730225563049], "weight": 0}, {"name": "philly rap", "preview_url": "https://p.scdn.co/mp3-preview/c4cfa6c10a5ed93ae6ccbb4680c58fc7fc41b2f3", "color": "#FCE6FA", "coordinates": [-0.7589043974876404, -0.11892200261354446, 0.0605941042304039], "weight": 0}, {"name": "afrofuturism", "preview_url": "https://p.scdn.co/mp3-preview/f2cbe872533ae55d7d60a44c42de96850198bb9c", "color": "#D6CAB0", "coordinates": [0.054893333464860916, 0.6016287803649902, 0.7227905988693237], "weight": 1}, {"name": "healing hz", "preview_url": "https://p.scdn.co/mp3-preview/b1b672ca784a6e9de63117c4fc733a4fa86d5403", "color": "#A1CEF9", "coordinates": [-0.6501966118812561, 0.03141913563013077, -0.23482447862625122], "weight": 0}, {"name": "cumbia pop", "preview_url": "https://p.scdn.co/mp3-preview/3a6a61d5516a571c6ca27617e17ff5fe0528311f", "color": "#BDA4F4", "coordinates": [0.5998490452766418, 0.10604805499315262, 0.0006599375046789646], "weight": 0}, {"name": "rap latina", "preview_url": "https://p.scdn.co/mp3-preview/b58e83d7ff00c1f727481d953d9edc5ae0e7ab56", "color": "#DCA6EB", "coordinates": [-0.6664398312568665, -0.106691874563694, 0.06026218459010124], "weight": 0}, {"name": "reggae", "preview_url": "https://p.scdn.co/mp3-preview/54be3e2b272ef71a520789998792328a5b306aea", "color": "#DBA785", "coordinates": [0.8461635708808899, 0.4981471300125122, -0.37838324904441833], "weight": 57}, {"name": "spanish pop rock", "preview_url": "https://p.scdn.co/mp3-preview/377f528abd1f70073fe882d9655f017c0c41e965", "color": "#EC97DE", "coordinates": [-0.0019411902176216245, -0.3215077519416809, 0.038148608058691025], "weight": 0}, {"name": "k-rap", "preview_url": "https://p.scdn.co/mp3-preview/f9d587a28cc9380560b75d4cd94d7189f796228d", "color": "#F99DA5", "coordinates": [-0.7408987879753113, -0.11768945306539536, 0.05950378254055977], "weight": 0}, {"name": "dutch hip hop", "preview_url": "https://p.scdn.co/mp3-preview/b9db080693fb2af296bfbac73d144f49dc1aa32c", "color": "#918B81", "coordinates": [0.5702066421508789, 0.5501301288604736, -0.3069973289966583], "weight": 0}, {"name": "la indie", "preview_url": "https://p.scdn.co/mp3-preview/6082516f3c05520cc2cf8cecd17e4ce8667c459e", "color": "#DEC0CA", "coordinates": [-0.3469260334968567, -0.6746601462364197, 0.4882418215274811], "weight": 3}, {"name": "alternative dance", "preview_url": "https://p.scdn.co/mp3-preview/c7483111af7b2478579f4de6383820df4936ecc6", "color": "#8EC6C8", "coordinates": [-0.28834524750709534, 0.3904312551021576, -0.41548851132392883], "weight": 0}, {"name": "v-pop", "preview_url": "https://p.scdn.co/mp3-preview/3b933496e9fbf6f241ab0b5758413c3297e7524e", "color": "#9F838E", "coordinates": [0.7460313439369202, -0.4791872501373291, 0.37644320726394653], "weight": 0}, {"name": "rap rock", "preview_url": "https://p.scdn.co/mp3-preview/1fe67a55e303b9b5ba380d0bd8b4b63dbf85c230", "color": "#8FD4EE", "coordinates": [-0.6605897545814514, -0.21127983927726746, -0.3558216094970703], "weight": 0}, {"name": "funk consciente", "preview_url": "https://p.scdn.co/mp3-preview/5f1aaf35d29b2ae8d291b0f60e37980b18795fae", "color": "#80A3F1", "coordinates": [0.29950249195098877, -0.6039378643035889, -0.3934215307235718], "weight": 0}, {"name": "indie anthem-folk", "preview_url": "https://p.scdn.co/mp3-preview/e8fa13df443d5d8dcbcef790ad22aa4be99c54fe", "color": "#8580F1", "coordinates": [-0.2804001271724701, 0.08918841183185577, 0.1920848786830902], "weight": 0}, {"name": "chill house", "preview_url": "https://p.scdn.co/mp3-preview/384d17770032349d215edaf8b3771e9139349d8d", "color": "#80EFEE", "coordinates": [-0.26424577832221985, 0.4972115755081177, 0.3098418712615967], "weight": 0}, {"name": "australian hip hop", "preview_url": "https://p.scdn.co/mp3-preview/1862550d000be8350b9046e0f355cb141070b3a6", "color": "#EDDDDD", "coordinates": [0.5992615222930908, 0.5797895193099976, -0.3238146901130676], "weight": 1}, {"name": "azontobeats", "preview_url": "https://p.scdn.co/mp3-preview/468985d9238cf7154010b470eae25c6a0ba82ba5", "color": "#D9A0E8", "coordinates": [0.3106135427951813, -0.4334329664707184, -0.4407605230808258], "weight": 0}, {"name": "new americana", "preview_url": "https://p.scdn.co/mp3-preview/a61f0bc45c93c97763ab3e4d84b1c89e9a355251", "color": "#B5ABA3", "coordinates": [0.27959057688713074, 0.17913571000099182, 0.8442046046257019], "weight": 1}, {"name": "tejano", "preview_url": "https://p.scdn.co/mp3-preview/e1e5a0acd60c9d37112368dbe467c99171054300", "color": "#AE85CD", "coordinates": [0.010318631306290627, -0.9030666947364807, 0.32198795676231384], "weight": 2}, {"name": "nova mpb", "preview_url": "https://p.scdn.co/mp3-preview/8b68b691603ba5ea32190aaf11010dec1e6fb9b9", "color": "#E688F5", "coordinates": [-0.7505672574043274, 0.06122102215886116, -0.02281976118683815], "weight": 0}, {"name": "dutch edm", "preview_url": "https://p.scdn.co/mp3-preview/80d72fb7608fd4c389aa0dc73b6fab3c8b2ee046", "color": "#D3DCA3", "coordinates": [0.2157224863767624, 0.13712400197982788, -0.8727731108665466], "weight": 0}, {"name": "sertanejo tradicional", "preview_url": "https://p.scdn.co/mp3-preview/44a833fc7341d325898ac7049af4afade985eb89", "color": "#96D5F5", "coordinates": [0.09337050467729568, -0.5442808866500854, 0.41554009914398193], "weight": 0}, {"name": "acoustic pop", "preview_url": "https://p.scdn.co/mp3-preview/09c4463827e7a7caded93593c834f4dc67428522", "color": "#84F085", "coordinates": [0.7106177806854248, -0.45874500274658203, 0.36258411407470703], "weight": 1}, {"name": "aesthetic rap", "preview_url": "https://p.scdn.co/mp3-preview/3a84cf7f0af712b08271570139902232de3a018f", "color": "#E4A7E8", "coordinates": [-0.8175706267356873, -0.13044333457946777, 0.06596992164850235], "weight": 0}, {"name": "pop flamenco", "preview_url": "https://p.scdn.co/mp3-preview/d477cfb6ce33eceb5e1c983e54fcab072f8b1eb5", "color": "#A09EB1", "coordinates": [0.45452165603637695, -0.009972918778657913, -0.15529610216617584], "weight": 0}, {"name": "rap conciencia", "preview_url": "https://p.scdn.co/mp3-preview/598fb8caa87492846bd12346c56d4fa5c734c7e4", "color": "#8881FA", "coordinates": [-0.6087408661842346, -0.10761377215385437, 0.04829932749271393], "weight": 0}, {"name": "dutch pop", "preview_url": "https://p.scdn.co/mp3-preview/e58a6b3c59fd208fa3a7e1ffecd0fd22ede4baca", "color": "#84FFD6", "coordinates": [0.6733312606811523, -0.44064515829086304, 0.3418166935443878], "weight": 2}, {"name": "ska argentino", "preview_url": "https://p.scdn.co/mp3-preview/2f3c32f00e77b46df9609a4b4c132c499929a4df", "color": "#8B9590", "coordinates": [0.5780248045921326, 0.5664116740226746, 0.007126523181796074], "weight": 0}, {"name": "irish rock", "preview_url": "https://p.scdn.co/mp3-preview/c544ab744cbf6ac2d9bde244e45b224072620b8c", "color": "#C2ECB6", "coordinates": [-0.30447813868522644, -0.19383351504802704, -0.5882912874221802], "weight": 0}, {"name": "classic italian pop", "preview_url": "https://p.scdn.co/mp3-preview/36fee697a7e78eb1c320fc95483d6efc49a82699", "color": "#B1D6BD", "coordinates": [0.6708886027336121, -0.4380272328853607, 0.34253039956092834], "weight": 0}, {"name": "indie pop rap", "preview_url": "https://p.scdn.co/mp3-preview/7978d938e16b0508bc2cdf6d591784a3dea18569", "color": "#8EE1A5", "coordinates": [0.05080608278512955, -0.3405758738517761, 0.2506319582462311], "weight": 0}, {"name": "pop r&b", "preview_url": "https://p.scdn.co/mp3-preview/99c21682a87628dbaa7331bc47cc743e174d34eb", "color": "#97CDC3", "coordinates": [0.2657149136066437, -0.49838611483573914, 0.4919065237045288], "weight": 0}, {"name": "groove metal", "preview_url": "https://p.scdn.co/mp3-preview/0caff60ca782cce034748c592e4823915d03f96c", "color": "#D9D683", "coordinates": [-0.471885621547699, 0.36136674880981445, 0.5808083415031433], "weight": 5}, {"name": "power metal", "preview_url": "https://p.scdn.co/mp3-preview/0dc965881b0f62cb47a2d2620b2018860fb48226", "color": "#CF83B2", "coordinates": [-0.48237961530685425, 0.3679485023021698, 0.5895265340805054], "weight": 14}, {"name": "lo-fi study", "preview_url": "https://p.scdn.co/mp3-preview/5aa666ed1ef2e775957c6c2c4d2d5fca13d20968", "color": "#C68CC9", "coordinates": [0.6690894365310669, 0.5556126236915588, 0.44788071513175964], "weight": 0}, {"name": "classic country pop", "preview_url": "https://p.scdn.co/mp3-preview/918a64c4ba003f7f57a3df6ca37d781dded15b92", "color": "#DCBFD1", "coordinates": [0.10763014107942581, -0.026521578431129456, -0.08121183514595032], "weight": 0}, {"name": "danish pop", "preview_url": "https://p.scdn.co/mp3-preview/49e4e7640f6c5d17821bb68a869dbde3bfe6df43", "color": "#A9AED2", "coordinates": [0.7162487506866455, -0.4617446959018707, 0.361480712890625], "weight": 2}, {"name": "jazz", "preview_url": "https://p.scdn.co/mp3-preview/6b1c4ca1799a20dbf9cdc226e22899c5664701dd", "color": "#B5F8DC", "coordinates": [-0.42729538679122925, 0.7646983861923218, 0.3435176908969879], "weight": 150}, {"name": "industrial rock", "preview_url": "https://p.scdn.co/mp3-preview/e775a13fabb5c7172b542fe7b7aabd2005c166db", "color": "#E8AFCA", "coordinates": [0.22494323551654816, -0.130010724067688, -0.1347079873085022], "weight": 1}, {"name": "hyperpop", "preview_url": "https://p.scdn.co/mp3-preview/6022f25ce023caaeb54df0e7d93bb26b59e0506b", "color": "#ED80C6", "coordinates": [0.6624624133110046, -0.4305465817451477, 0.3395777642726898], "weight": 11}, {"name": "phonk brasileiro", "preview_url": "https://p.scdn.co/mp3-preview/5eebe4ff27196397393991c79bc201c30a760b2d", "color": "#BC83E4", "coordinates": [0.8103458881378174, -0.3083778917789459, 0.07340450584888458], "weight": 0}, {"name": "pixie", "preview_url": "https://p.scdn.co/mp3-preview/9fc458670f0269e07dfa659e1fb0362b9b7a734a", "color": "#ECBFE0", "coordinates": [0.07581260055303574, -0.6069962382316589, -0.8054711222648621], "weight": 1}, {"name": "bossa nova", "preview_url": "https://p.scdn.co/mp3-preview/0c3b657c6358bcaf5db19bafaaa0672a3840f6ef", "color": "#BBBBB8", "coordinates": [0.6560884714126587, 0.5431880950927734, 0.6480105519294739], "weight": 2}, {"name": "uk post-punk", "preview_url": "https://p.scdn.co/mp3-preview/1a024b6c942ed5535bbdfb2ec076fd40a16968b6", "color": "#898FAC", "coordinates": [0.42606213688850403, -0.4633120894432068, -0.3276009261608124], "weight": 1}, {"name": "lo-fi indie", "preview_url": "https://p.scdn.co/mp3-preview/dd8f04fca96a2c2d748776f5c96eb48e09a5ff2f", "color": "#BE84FE", "coordinates": [0.5430315732955933, 0.43301528692245483, 0.35800716280937195], "weight": 0}, {"name": "cumbia sonidera", "preview_url": "https://p.scdn.co/mp3-preview/e3f3bfd825fe900635e776630ed61d1d2b48dac8", "color": "#96A5AB", "coordinates": [0.31600022315979004, 0.5970442295074463, -0.3299088180065155], "weight": 0}, {"name": "southern soul", "preview_url": "https://p.scdn.co/mp3-preview/38159b3c325bc06dc42c4858b8296e1f03e8e957", "color": "#EAF5C1", "coordinates": [0.46933311223983765, 0.34342873096466064, 0.4416234791278839], "weight": 2}, {"name": "roots reggae", "preview_url": "https://p.scdn.co/mp3-preview/0e8cc7c26c28e4751c67cf37ea7913a4f6392196", "color": "#D7FE82", "coordinates": [0.7387346029281616, 0.44248273968696594, -0.32854682207107544], "weight": 0}, {"name": "sad rap", "preview_url": "https://p.scdn.co/mp3-preview/e88548073883ae36ba42ee5f1d1096568e417737", "color": "#A3DEB8", "coordinates": [-0.8155884146690369, -0.130166158080101, 0.06837999820709229], "weight": 1}, {"name": "german techno", "preview_url": "https://p.scdn.co/mp3-preview/852f930a7028eed234e29ff035a9c8f42a5f5449", "color": "#94A3F9", "coordinates": [-0.4824170470237732, -0.5120958089828491, 0.2638605237007141], "weight": 0}, {"name": "lo-fi beats", "preview_url": "https://p.scdn.co/mp3-preview/b342b90b694ad3f312cb127c3890ddd00f432fcc", "color": "#D8D5E0", "coordinates": [0.6706486940383911, 0.2077038288116455, -0.10601606965065002], "weight": 0}, {"name": "sad lo-fi", "preview_url": "https://p.scdn.co/mp3-preview/ea498629b7ae53b5610619c5ab3f902ab7078da4", "color": "#D09BDB", "coordinates": [0.5201118588447571, 0.43125981092453003, 0.34820181131362915], "weight": 0}, {"name": "pop emo", "preview_url": "https://p.scdn.co/mp3-preview/118cb13c2f198282acc8b52ce475fbb739d1c5c9", "color": "#CA9CD7", "coordinates": [0.2791275382041931, -0.659540057182312, 0.4743267893791199], "weight": 1}, {"name": "german metal", "preview_url": "https://p.scdn.co/mp3-preview/f6857a2ec6f8e6d5950c8a93e956b04cc653e6a2", "color": "#C591DB", "coordinates": [-0.5791565775871277, 0.43543511629104614, 0.7135549187660217], "weight": 1}, {"name": "cumbia villera", "preview_url": "https://p.scdn.co/mp3-preview/d16c3658f45b37e4c159ee12931dda3e15c763ec", "color": "#979482", "coordinates": [0.2944197356700897, 0.5550495386123657, -0.3066725730895996], "weight": 0}, {"name": "latin worship", "preview_url": "https://p.scdn.co/mp3-preview/b3b385b07709c25e48982d767aeaec70ec1b0629", "color": "#D89BB1", "coordinates": [-0.17193709313869476, -0.3218206465244293, -0.6960480809211731], "weight": 0}, {"name": "drill", "preview_url": "https://p.scdn.co/mp3-preview/4ab803980d33737fe5d68992b35e6cf2c98ae788", "color": "#DBC9BB", "coordinates": [-0.4616229832172394, 0.4671533405780792, -0.5978821516036987], "weight": 43}, {"name": "pop edm", "preview_url": "https://p.scdn.co/mp3-preview/0456afe2a4276b3aac6a0d0a67e2c5775dde1885", "color": "#96A7B7", "coordinates": [0.5224449634552002, -0.1936626434326172, -0.23115117847919464], "weight": 1}, {"name": "arab pop", "preview_url": "https://p.scdn.co/mp3-preview/3dc6f08b070c42fb3bc6a769fbbd324452c0cc62", "color": "#BCED83", "coordinates": [0.598438560962677, -0.39118996262550354, 0.29721397161483765], "weight": 1}, {"name": "brazilian reggae", "preview_url": "https://p.scdn.co/mp3-preview/817bc1e6fca2a56d2a9e348cc452bc5b15bc6c64", "color": "#C69FEA", "coordinates": [0.5564744472503662, 0.3314642608165741, -0.23985199630260468], "weight": 0}, {"name": "broadway", "preview_url": "https://p.scdn.co/mp3-preview/63d19d7e59df5f8e35e75f433d4d0f58c451dfd5", "color": "#9BBFE3", "coordinates": [0.6783099174499512, 0.6749165058135986, -0.06162761151790619], "weight": 1}, {"name": "roots rock", "preview_url": "https://p.scdn.co/mp3-preview/3358b2e58d10a0e6356fc3aa8a3d20547eaa627e", "color": "#C688C9", "coordinates": [-0.40169602632522583, -0.2594411075115204, -0.7576341032981873], "weight": 1}, {"name": "samba", "preview_url": "https://p.scdn.co/mp3-preview/aea25d7f3a864c862f3738b2648952771aac9fff", "color": "#F080D8", "coordinates": [0.3192352056503296, 0.34787717461586, -0.7981958985328674], "weight": 11}, {"name": "tech house", "preview_url": "https://p.scdn.co/mp3-preview/0113b58da8f8013fcf266f86819c2ac73e9b17be", "color": "#C6B7D1", "coordinates": [-0.27621155977249146, 0.5306434631347656, 0.33121275901794434], "weight": 12}, {"name": "filter house", "preview_url": "https://p.scdn.co/mp3-preview/d620951f963688301eab90755263d97f8bef6fac", "color": "#91D1A1", "coordinates": [-0.2941097319126129, 0.5829657316207886, 0.3658631443977356], "weight": 0}, {"name": "neo-classical", "preview_url": "https://p.scdn.co/mp3-preview/619f2e72c100b8f8fbc45c0ed96cd0f457054132", "color": "#8C8DDB", "coordinates": [0.6599823236465454, -0.4586109220981598, -0.14711959660053253], "weight": 0}, {"name": "jazz pop", "preview_url": "https://p.scdn.co/mp3-preview/e952dc08d40f75d7cdd701e0b41bc1b11ae1b627", "color": "#BEBAB4", "coordinates": [0.20002879202365875, 0.11934208869934082, 0.3792177438735962], "weight": 0}, {"name": "show tunes", "preview_url": "https://p.scdn.co/mp3-preview/3f07e5f8f3cf26552ae0fd452ace3ebf63697c31", "color": "#E3C1A2", "coordinates": [0.5579178929328918, -0.8606330752372742, -0.0012356757652014494], "weight": 1}, {"name": "rap canario", "preview_url": "https://p.scdn.co/mp3-preview/de6c5b302fc1c645535d20fc39fc8205b2cf63d8", "color": "#CE8CDE", "coordinates": [-0.7773002982139587, -0.12405114620923996, 0.06549248844385147], "weight": 0}, {"name": "sufi", "preview_url": "https://p.scdn.co/mp3-preview/723158708c1b681c5c7e13df9a6e067d0eb1c5b5", "color": "#D4858B", "coordinates": [-0.1102173775434494, -0.09182299673557281, -0.9235377907752991], "weight": 2}, {"name": "swedish hip hop", "preview_url": "https://p.scdn.co/mp3-preview/23397ee12fbd05c00b3f76b2802f12bafecdccd6", "color": "#E3BF96", "coordinates": [0.587103009223938, 0.5675609111785889, -0.3184504806995392], "weight": 0}, {"name": "turkish alt pop", "preview_url": "https://p.scdn.co/mp3-preview/bd94aa5536d6f13bb64d016692be73fe475199c9", "color": "#A1858A", "coordinates": [0.6851379871368408, -0.44231244921684265, 0.344559907913208], "weight": 0}, {"name": "hollywood", "preview_url": "https://p.scdn.co/mp3-preview/e6f6c4494ceca7aa44dc86c4e32b932044180d8c", "color": "#F8F48F", "coordinates": [0.07490727305412292, -0.5764722228050232, 0.8449442386627197], "weight": 1}, {"name": "spanish rock", "preview_url": "https://p.scdn.co/mp3-preview/f4b7a980c526d552da9d1c6e192b053e3b011d87", "color": "#B4BD94", "coordinates": [-0.523510217666626, -0.1905619502067566, -0.1691773384809494], "weight": 1}, {"name": "irish singer-songwriter", "preview_url": "https://p.scdn.co/mp3-preview/e73fdfee386c9d09d47a58155d83fd235ab6cb89", "color": "#89FFB5", "coordinates": [0.23255175352096558, 0.5422407388687134, 0.3236127495765686], "weight": 0}, {"name": "electro latino", "preview_url": "https://p.scdn.co/mp3-preview/b04b638b42e1476b54734bdb085c0287e49ecc63", "color": "#F2F0A6", "coordinates": [-0.4591589570045471, 0.22111274302005768, -0.36076292395591736], "weight": 0}, {"name": "shimmer pop", "preview_url": "https://p.scdn.co/mp3-preview/3f7dd00abe1ba0d6feeee3ff3756ddf56290df77", "color": "#AFD4BA", "coordinates": [0.5067322850227356, -0.3320135176181793, 0.24591542780399323], "weight": 0}, {"name": "lullaby", "preview_url": "https://p.scdn.co/mp3-preview/f3915ec4f5404b6c93dfd1a8c2ef0de283ea3330", "color": "#A9B1A0", "coordinates": [0.9640833139419556, 0.10572603344917297, 0.24807046353816986], "weight": 1}, {"name": "korean r&b", "preview_url": "https://p.scdn.co/mp3-preview/2ec1eca78e7feedd9cfdee7531eb00f37a465546", "color": "#D1C199", "coordinates": [-0.1549016833305359, -0.5270055532455444, 0.6029964089393616], "weight": 0}, {"name": "baton rouge rap", "preview_url": "https://p.scdn.co/mp3-preview/4491a155871f38762e422451f0d19191608703e9", "color": "#A0EDC0", "coordinates": [-0.8491061329841614, -0.1383918970823288, 0.07091052085161209], "weight": 0}, {"name": "skate punk", "preview_url": "https://p.scdn.co/mp3-preview/239ca6e880cb7edd95afd8e5e36c49b51bf26ad5", "color": "#9F8BAB", "coordinates": [0.6737136840820312, 0.0031835203990340233, -0.2629097104072571], "weight": 0}, {"name": "grime", "preview_url": "https://p.scdn.co/mp3-preview/dbede690464211c46751eb837b9a096c5a7313e8", "color": "#BFE8C3", "coordinates": [-0.3104718327522278, -0.9071655869483948, 0.07371765375137329], "weight": 6}, {"name": "country pop", "preview_url": "https://p.scdn.co/mp3-preview/7f89d9a7d71a197df028f78f82fea448eea66730", "color": "#97ACF4", "coordinates": [0.10762182623147964, -0.026511404663324356, -0.0812264010310173], "weight": 2}, {"name": "german rock", "preview_url": "https://p.scdn.co/mp3-preview/02aa55629a354795469a22482175e388449acb92", "color": "#DEF7F9", "coordinates": [-0.31563425064086914, -0.1933969408273697, -0.581706702709198], "weight": 1}, {"name": "nigerian hip hop", "preview_url": "https://p.scdn.co/mp3-preview/8145d7d9abbdb8fed93fb37c64f8412f46c4023d", "color": "#8EE2F4", "coordinates": [0.5239812135696411, 0.4993002116680145, -0.28394609689712524], "weight": 0}, {"name": "russian pop", "preview_url": "https://p.scdn.co/mp3-preview/e9e94096a21faab92eab886e8b06dda16aed694e", "color": "#C28EEF", "coordinates": [0.6185102462768555, -0.39777055382728577, 0.32246488332748413], "weight": 2}, {"name": "noise pop", "preview_url": "https://p.scdn.co/mp3-preview/3a8c27d8264a0a8de4ba68fd472e4bb490015214", "color": "#D08B91", "coordinates": [0.6005731821060181, 0.1220419853925705, 0.332082599401474], "weight": 1}, {"name": "speed metal", "preview_url": "https://p.scdn.co/mp3-preview/fef6939070f877d0d6670492eeb2b8ae253ecc1a", "color": "#91AB81", "coordinates": [-0.368284672498703, 0.2788972556591034, 0.4625988006591797], "weight": 2}, {"name": "canadian trap", "preview_url": "https://p.scdn.co/mp3-preview/cb3b1c7669323d89a63f8861beeff6a9412a4374", "color": "#95B381", "coordinates": [-0.6494213342666626, -0.10020304471254349, 0.050164662301540375], "weight": 0}, {"name": "indonesian indie", "preview_url": "https://p.scdn.co/mp3-preview/d45926a8e4abb4a0d72b130c36f88479cbbc9834", "color": "#A3E88D", "coordinates": [0.5483134388923645, 0.4495490491390228, 0.6278539896011353], "weight": 2}, {"name": "rap marseille", "preview_url": "https://p.scdn.co/mp3-preview/e623c8a16af0275bd9a78aab2f183ae97610da9e", "color": "#CBA0CC", "coordinates": [-0.7408719062805176, -0.11724412441253662, 0.06267186999320984], "weight": 0}, {"name": "vallenato", "preview_url": "https://p.scdn.co/mp3-preview/06a513a69aec8893b999b3306f2dea42b51a8b60", "color": "#F7CBCD", "coordinates": [-0.329563707113266, 0.856036365032196, 0.22328774631023407], "weight": 1}, {"name": "kentucky hip hop", "preview_url": "https://p.scdn.co/mp3-preview/eeeb6151d0049367b3ad3db0389e9e3b116c0774", "color": "#D3FEBC", "coordinates": [0.48131561279296875, 0.46031391620635986, -0.2703431248664856], "weight": 0}, {"name": "ohio hip hop", "preview_url": "https://p.scdn.co/mp3-preview/1ec350835aa2510f17f936e1885fe4ad51d803e0", "color": "#BBA1E8", "coordinates": [0.6552757024765015, 0.6401554942131042, -0.361642450094223], "weight": 0}, {"name": "la pop", "preview_url": "https://p.scdn.co/mp3-preview/304ab0ffa5902c602b0c0bc9ff81a8fcb7e889d6", "color": "#A6E1A1", "coordinates": [0.6221620440483093, -0.4153517186641693, 0.3254512548446655], "weight": 4}, {"name": "swedish trap pop", "preview_url": "https://p.scdn.co/mp3-preview/8656328d51c31dfbecc5df829c958aedf62829ba", "color": "#F6A597", "coordinates": [-0.20708395540714264, -0.2748584747314453, 0.1948440968990326], "weight": 0}, {"name": "salsa puertorriquena", "preview_url": "https://p.scdn.co/mp3-preview/6b077996e0c44dcc6571b13edf0c3fb6c834018a", "color": "#90E7D7", "coordinates": [-0.28417328000068665, 0.694101095199585, -0.001033638953231275], "weight": 0}, {"name": "french indie pop", "preview_url": "https://p.scdn.co/mp3-preview/7f9bab09434f3bd8a136f381b8c1ff2a2ecf4eed", "color": "#95ABEE", "coordinates": [0.6418796181678772, -0.4184674322605133, 0.327386736869812], "weight": 0}, {"name": "hindi hip hop", "preview_url": "https://p.scdn.co/mp3-preview/405e2c1e1cc5559079c995ca218b283436b3b432", "color": "#8CB2DE", "coordinates": [0.5818390846252441, 0.5606924295425415, -0.3154003918170929], "weight": 0}, {"name": "tollywood", "preview_url": "https://p.scdn.co/mp3-preview/db0a6a293ba94cf920739cc58d5ad2cad80b07f7", "color": "#B180CC", "coordinates": [-0.5753846764564514, -0.8189125061035156, 0.1458941102027893], "weight": 2}, {"name": "ambient pop", "preview_url": "https://p.scdn.co/mp3-preview/abade2f5924c8a98e09defdcada49e20dda6981b", "color": "#CED6F5", "coordinates": [0.24594831466674805, -0.1442071497440338, -0.2205343097448349], "weight": 0}, {"name": "stutter house", "preview_url": "https://p.scdn.co/mp3-preview/9959620fcb0d2c1c25384d35a530634ae2f18c5e", "color": "#FEF3AB", "coordinates": [-0.2862969934940338, 0.5607289671897888, 0.34953656792640686], "weight": 0}, {"name": "cloud rap francais", "preview_url": "https://p.scdn.co/mp3-preview/d8775cc66d27d1bce8bed3d761798fee5f123354", "color": "#A4D6F4", "coordinates": [-0.18701940774917603, 0.10695800185203552, -0.26579955220222473], "weight": 0}, {"name": "jazz blues", "preview_url": "https://p.scdn.co/mp3-preview/15686eb95a60c52f342967c2afbcf7f06f6deee1", "color": "#DBD9D3", "coordinates": [0.20812749862670898, 0.6065375804901123, 0.26714882254600525], "weight": 0}, {"name": "florida drill", "preview_url": "https://p.scdn.co/mp3-preview/33c9ecd3818a217be9edd1433bc3bf61773834be", "color": "#FE8580", "coordinates": [-0.4369870722293854, 0.44042643904685974, -0.5589475631713867], "weight": 0}, {"name": "turbo folk", "preview_url": "https://p.scdn.co/mp3-preview/86949af4e9d5b2b9118a487eb576b3bbcd66db90", "color": "#D9CC93", "coordinates": [0.039232391864061356, 0.8241652250289917, 0.1042293831706047], "weight": 0}, {"name": "pinoy hip hop", "preview_url": "https://p.scdn.co/mp3-preview/bacfe144949c072702ce29bb5a34a7487bb58e19", "color": "#DD8089", "coordinates": [0.5147326588630676, 0.48460736870765686, -0.2741381824016571], "weight": 0}, {"name": "czsk hip hop", "preview_url": "https://p.scdn.co/mp3-preview/cb62c15b2201270ca031b05f284d54f15216a2bc", "color": "#E1C3F4", "coordinates": [0.5952844619750977, 0.5753874182701111, -0.3211975395679474], "weight": 0}, {"name": "rap napoletano", "preview_url": "https://p.scdn.co/mp3-preview/98af7b9b0eacb46aabf67fbd2daaca3e9a168b59", "color": "#E2E9A0", "coordinates": [-0.7340941429138184, -0.11417169868946075, 0.06276869773864746], "weight": 0}, {"name": "chicago drill", "preview_url": "https://p.scdn.co/mp3-preview/755df753eec675bf7d8b6783fcb4118304b599d8", "color": "#B6D7D9", "coordinates": [-0.35399824380874634, 0.34781068563461304, -0.444993793964386], "weight": 0}, {"name": "japanese singer-songwriter", "preview_url": "https://p.scdn.co/mp3-preview/a44f6dddbe32486181c5eed398c68b9fc201904e", "color": "#84BCF2", "coordinates": [0.24313031136989594, 0.5775784850120544, 0.34262529015541077], "weight": 0}, {"name": "new rave", "preview_url": "https://p.scdn.co/mp3-preview/632037798d8c706947c37b51757671d363ceb7c7", "color": "#E4E6A0", "coordinates": [-0.16027718782424927, -0.7545214891433716, -0.5047441124916077], "weight": 0}, {"name": "french rock", "preview_url": "https://p.scdn.co/mp3-preview/702278b04ee64dd36906cf48a11ee3bf9a8b9f22", "color": "#CDACB1", "coordinates": [-0.32773005962371826, -0.20948505401611328, -0.6187588572502136], "weight": 2}, {"name": "swedish electropop", "preview_url": "https://p.scdn.co/mp3-preview/e769e43b715b75d65b8a0c6a7bd11369c345b903", "color": "#958E9E", "coordinates": [0.08126102387905121, -0.10700526088476181, -0.043727051466703415], "weight": 0}, {"name": "classic j-pop", "preview_url": "https://p.scdn.co/mp3-preview/9c35b5ec9d6b1b9ab93297bf29081b72a60c8620", "color": "#EDF986", "coordinates": [0.61165452003479, -0.39074215292930603, 0.31051239371299744], "weight": 0}, {"name": "polish pop", "preview_url": "https://p.scdn.co/mp3-preview/7805c378138d8f17f152771b933e5ba9b2fc0240", "color": "#DA95AB", "coordinates": [0.6204260587692261, -0.4124895930290222, 0.3092934787273407], "weight": 1}, {"name": "drill francais", "preview_url": "https://p.scdn.co/mp3-preview/b07cbb4d8ea2ccb2cf9fe062b32a51aa5d747f0e", "color": "#DCAD93", "coordinates": [-0.4471060335636139, 0.5139744281768799, -0.3967101573944092], "weight": 0}, {"name": "new jack swing", "preview_url": "https://p.scdn.co/mp3-preview/2dc2d4bb0af1b5e053d400b196a41fb8a54f5f40", "color": "#9B94F8", "coordinates": [0.230818510055542, -0.6322711110115051, 0.3085237145423889], "weight": 0}, {"name": "canadian singer-songwriter", "preview_url": "https://p.scdn.co/mp3-preview/bd186b39fb5d9d15960c09962e6e00b20afd53f5", "color": "#8CBBFA", "coordinates": [0.27883055806159973, 0.6618895530700684, 0.39723503589630127], "weight": 0}, {"name": "drill espanol", "preview_url": "https://p.scdn.co/mp3-preview/0535f5a9e06dab18727f5a9e1bbe0ef9c6e0bbe1", "color": "#C485B7", "coordinates": [-0.5466216206550598, 0.17929084599018097, -0.07275330275297165], "weight": 0}, {"name": "gym hardstyle", "preview_url": "https://p.scdn.co/mp3-preview/af3ffe1fffe1a50602ab92ccd529b56e7742833d", "color": "#C1C398", "coordinates": [-0.005391142796725035, -0.24938982725143433, -0.7442227005958557], "weight": 0}, {"name": "indonesian singer-songwriter", "preview_url": "https://p.scdn.co/mp3-preview/fa8129a3d9c493f4a0a8e63306a3a8f46ab6fe0c", "color": "#C7C9F6", "coordinates": [0.26414844393730164, 0.629795253276825, 0.3757995367050171], "weight": 0}, {"name": "dangdut", "preview_url": "https://p.scdn.co/mp3-preview/15a9848ad7bb4fc17fc47026d815930277158d60", "color": "#99AC84", "coordinates": [0.47348013520240784, 0.6164000034332275, 0.6609154343605042], "weight": 3}, {"name": "swing", "preview_url": "https://p.scdn.co/mp3-preview/fd100903c46606aa6e9340df85ef87bdb8dd8eeb", "color": "#FAA0B2", "coordinates": [0.28069886565208435, -0.8924712538719177, 0.4374453127384186], "weight": 10}, {"name": "deep house", "preview_url": "https://p.scdn.co/mp3-preview/bb78c73622dde03a395fdf42db71fc61a59fe1cc", "color": "#D89893", "coordinates": [-0.30710846185684204, 0.6262096762657166, 0.394137978553772], "weight": 4}, {"name": "industrial", "preview_url": "https://p.scdn.co/mp3-preview/427563d67617ed14441021b41b16e935751aa5f4", "color": "#F493F2", "coordinates": [0.8671371936798096, 0.013625705614686012, 0.5220531225204468], "weight": 17}, {"name": "uk alternative pop", "preview_url": "https://p.scdn.co/mp3-preview/5c70671d300023689f92f565aa23cfa82c6daf39", "color": "#A2E49A", "coordinates": [0.21644316613674164, 0.02202281914651394, -0.09082985669374466], "weight": 0}, {"name": "kollywood", "preview_url": "https://p.scdn.co/mp3-preview/899cb72ab8e2b4e1515f78cc0a40709b741003c6", "color": "#FED2D2", "coordinates": [0.6813812851905823, -0.7088838219642639, -0.30234140157699585], "weight": 1}, {"name": "uk metalcore", "preview_url": "https://p.scdn.co/mp3-preview/d07d041e6882504c93433806e2adb9e50a919e1c", "color": "#F59AD4", "coordinates": [-0.40512916445732117, 0.3212564289569855, 0.49530279636383057], "weight": 0}, {"name": "baroque", "preview_url": "https://p.scdn.co/mp3-preview/1fdcd5a816088700d4180db1f57c68cdcbdb2a3b", "color": "#C4FD91", "coordinates": [0.7098592519760132, -0.5897189974784851, -0.38444018363952637], "weight": 16}, {"name": "flamenco urbano", "preview_url": "https://p.scdn.co/mp3-preview/77275d58c2385a0a3c11064bbd60c9c45dcf348a", "color": "#E8BE8C", "coordinates": [0.08133593946695328, 0.5014882683753967, -0.7207239270210266], "weight": 0}, {"name": "modern indie folk", "preview_url": "https://p.scdn.co/mp3-preview/de247d6a288e409fff316cee6decbaf365e59d8d", "color": "#EFD1E8", "coordinates": [0.038675885647535324, 0.8059828877449036, 0.10381624102592468], "weight": 0}, {"name": "country rap", "preview_url": "https://p.scdn.co/mp3-preview/8d8a4b1af722253f65b66a49200e59a53e1ec411", "color": "#9789BC", "coordinates": [-0.6285044550895691, 0.13783863186836243, -0.21009163558483124], "weight": 0}, {"name": "early music", "preview_url": "https://p.scdn.co/mp3-preview/f05d0ddeea2bbc7851327f842d186db8e02ef682", "color": "#C3D2B7", "coordinates": [0.8747215867042542, 0.13125211000442505, -0.43885135650634766], "weight": 5}, {"name": "glitchcore", "preview_url": "https://p.scdn.co/mp3-preview/ce611b46b730366924efa2dfd4b9ba6ca35691c4", "color": "#E09D95", "coordinates": [-0.17786230146884918, 0.8105284571647644, 0.12325110286474228], "weight": 0}, {"name": "cantopop", "preview_url": "https://p.scdn.co/mp3-preview/1c9c0d009717ab8de9cf97e92ff0b62cc9e0254c", "color": "#C18EFF", "coordinates": [0.6863459348678589, -0.4450065493583679, 0.3512457311153412], "weight": 1}, {"name": "bachata dominicana", "preview_url": "https://p.scdn.co/mp3-preview/86247580fd92e955ba67de48017aac06ee33fc6e", "color": "#E48F82", "coordinates": [-0.06390250474214554, -0.8113408088684082, -0.3199341893196106], "weight": 0}, {"name": "modern folk rock", "preview_url": "https://p.scdn.co/mp3-preview/6f3778b6bbbcf8517b820501da1d5ef05cd4c89b", "color": "#AAE396", "coordinates": [-0.18252350389957428, 0.3118273615837097, -0.3395443558692932], "weight": 0},